timestamp,timestamp_sample,device_id,error_count,pressure,temperature
984000,984000,6620172,0,956.02185,11.832275
1992000,1992000,6620172,0,956.0469,11.832275
3000000,3000000,6620172,0,956.0446,11.832275
3984000,3984000,6620172,0,956.03937,11.832275
4992000,4992000,6620172,0,956.03516,11.832275
5976000,5976000,6620172,0,956.02045,11.832275
6984000,6984000,6620172,0,956.045,11.832275
7996000,7996000,6620172,0,956.0308,11.832275
9000000,9000000,6620172,0,956.03796,11.832275
9984000,9984000,6620172,0,956.0232,11.832275
10992000,10992000,6620172,0,956.0342,11.832275
11976000,11976000,6620172,0,956.0135,11.832275
12988000,12988000,6620172,0,956.0283,11.832275
13992000,13992000,6620172,0,956.0165,11.832275
14976000,14976000,6620172,0,956.06287,11.832275
15984000,15984000,6620172,0,956.03094,11.832275
16996000,16996000,6620172,0,956.0355,11.832275
18000000,18000000,6620172,0,956.01746,11.832275
18988000,18988000,6620172,0,956.0283,11.832275
19992000,19992000,6620172,0,956.0208,11.832275
21000000,21000000,6620172,0,956.0371,11.832275
21984000,21984000,6620172,0,956.0191,11.832275
22992000,22992000,6620172,0,956.03754,11.832275
23976000,23976000,6620172,0,956.02985,11.832275
24984000,24984000,6620172,0,956.018,11.832275
25992000,25992000,6620172,0,956.0277,11.832275
27000000,27000000,6620172,0,956.0405,11.832275
27988000,27988000,6620172,0,956.0246,11.832275
28992000,28992000,6620172,0,956.01373,11.832275
30000000,30000000,6620172,0,956.0077,11.832275
30984000,30984000,6620172,0,956.0142,11.832275
31992000,31992000,6620172,0,956.0452,11.832275
33000000,33000000,6620172,0,956.0302,11.832275
33984000,33984000,6620172,0,956.0191,11.832275
34992000,34992000,6620172,0,956.0285,11.832275
35976000,35976000,6620172,0,956.01337,11.832275
36984000,36984000,6620172,0,956.02264,11.832275
37996000,37996000,6620172,0,956.0142,11.832275
39000000,39000000,6620172,0,956.0269,11.832275
39984000,39984000,6620172,0,956.0236,11.832275
40996000,40996000,6620172,0,956.023,11.832275
42000000,42000000,6620172,0,956.02704,11.832275
42984000,42984000,6620172,0,956.00574,11.832275
43992000,43992000,6620172,0,956.0328,11.832275
45000000,45000000,6620172,0,956.01843,11.832275
45984000,45984000,6620172,0,956.0381,11.832275
46992000,46992000,6620172,0,956.0349,11.832275
48000000,48000000,6620172,0,956.03406,11.832275
48988000,48988000,6620172,0,956.0263,11.832275
49992000,49992000,6620172,0,956.0392,11.832275
51000000,51000000,6620172,0,956.0135,11.832275
51984000,51984000,6620172,0,956.0427,11.832275
52992000,52992000,6620172,0,956.008,11.832275
54000000,54000000,6620172,0,956.0113,11.832275
54984000,54984000,6620172,0,956.0162,11.832275
55992000,55992000,6620172,0,956.0197,11.832275
56980000,56980000,6620172,0,956.02295,11.832275
57984000,57984000,6620172,0,956.0277,11.832275
58996000,58996000,6620172,0,956.0249,11.832275
60000000,60000000,6620172,0,956.0207,11.832275
60984000,60984000,6620172,0,956.02216,11.832275
61996000,61996000,6620172,0,956.0267,11.832275
62980000,62980000,6620172,0,956.0313,11.832275
63988000,63988000,6620172,0,956.0255,11.832275
64992000,64992000,6620172,0,956.0162,11.832275
65976000,65976000,6620172,0,956.0142,11.832275
66984000,66984000,6620172,0,956.02313,11.832275
67992000,67992000,6620172,0,956.0478,11.832275
68980000,68980000,6620172,0,956.0408,11.832275
69984000,69984000,6620172,0,956.03375,11.832275
70992000,70992000,6620172,0,956.05786,11.832275
72000000,72000000,6620172,0,956.0246,11.832275
72984000,72984000,6620172,0,956.0099,11.832275
73992000,73992000,6620172,0,956.0413,11.832275
75000000,75000000,6620172,0,956.0293,11.832275
75988000,75988000,6620172,0,956.03143,11.832275
76996000,76996000,6620172,0,956.0249,11.832275
77980000,77980000,6620172,0,956.0272,11.832275
78988000,78988000,6620172,0,956.01855,11.832275
79996000,79996000,6620172,0,956.0158,11.832275
80980000,80980000,6620172,0,956.0494,11.832275
81984000,81984000,6620172,0,956.0266,11.832275
82992000,82992000,6620172,0,956.0353,11.832275
84000000,84000000,6620172,0,956.0261,11.832275
84984000,84984000,6620172,0,956.0114,11.832275
85996000,85996000,6620172,0,956.0361,11.832275
86980000,86980000,6620172,0,956.0113,11.832275
87984000,87984000,6620172,0,956.0386,11.832275
88992000,88992000,6620172,0,956.0313,11.832275
89980000,89980000,6620172,0,956.0261,11.832275
90988000,90988000,6620172,0,956.0375,11.832275
91992000,91992000,6620172,0,956.03754,11.832275
92976000,92976000,6620172,0,956.01184,11.832275
93984000,93984000,6620172,0,956.041,11.832275
94992000,94992000,6620172,0,956.01984,11.832275
95976000,95976000,6620172,0,956.02124,11.832275
96988000,96988000,6620172,0,956.02295,11.832275
97996000,97996000,6620172,0,956.04785,11.832275
99000000,99000000,6620172,0,956.0286,11.832275
99988000,99988000,6620172,0,956.0235,11.832275
100996000,100996000,6620172,0,956.0318,11.832275
102000000,102000000,6620172,0,956.0397,11.832275
102988000,102988000,6620172,0,956.02936,11.832275
103992000,103992000,6620172,0,956.01074,11.832275
105000000,105000000,6620172,0,956.00653,11.832275
105984000,105984000,6620172,0,956.0343,11.832275
106992000,106992000,6620172,0,956.0254,11.832275
108000000,108000000,6620172,0,956.02826,11.832275
108984000,108984000,6620172,0,956.0092,11.832275
109992000,109992000,6620172,0,956.03326,11.832275
111000000,111000000,6620172,0,956.03326,11.832275
111988000,111988000,6620172,0,956.01154,11.832275
112992000,112992000,6620172,0,956.01514,11.832275
114000000,114000000,6620172,0,956.013,11.832275
114988000,114988000,6620172,0,956.01965,11.832275
115992000,115992000,6620172,0,956.00977,11.831818
116980000,116980000,6620172,0,955.5682,11.807556
117988000,117988000,6620172,0,954.8195,11.76413
118996000,118996000,6620172,0,954.1337,11.725403
119980000,119980000,6620172,0,953.686,11.69989
120988000,120988000,6620172,0,953.31793,11.679779
121996000,121996000,6620172,0,953.0183,11.661438
123000000,123000000,6620172,0,952.70734,11.643372
123988000,123988000,6620172,0,952.35016,11.625549
124992000,124992000,6620172,0,952.0519,11.606781
126000000,126000000,6620172,0,951.70996,11.588013
126984000,126984000,6620172,0,951.44403,11.572174
127992000,127992000,6620172,0,951.3556,11.567413
129000000,129000000,6620172,0,951.31116,11.564331
129988000,129988000,6620172,0,951.101,11.552582
130996000,130996000,6620172,0,950.7882,11.535431
131976000,131976000,6620172,0,950.4961,11.518066
132984000,132984000,6620172,0,950.36804,11.510529
133992000,133992000,6620172,0,950.339,11.508331
134976000,134976000,6620172,0,950.3085,11.507507
135984000,135984000,6620172,0,950.3061,11.507233
136996000,136996000,6620172,0,950.3011,11.50705
137976000,137976000,6620172,0,950.28546,11.506775
138984000,138984000,6620172,0,950.3086,11.506653
139992000,139992000,6620172,0,950.30524,11.506683
141000000,141000000,6620172,0,950.3011,11.506592
141984000,141984000,6620172,0,950.2836,11.506561
142992000,142992000,6620172,0,950.287,11.506439
143980000,143980000,6620172,0,950.2831,11.506256
144984000,144984000,6620172,0,950.2917,11.506348
145996000,145996000,6620172,0,950.31195,11.5061035
147000000,147000000,6620172,0,950.30676,11.507172
147984000,147984000,6620172,0,950.35834,11.511078
148996000,148996000,6620172,0,950.4404,11.514893
149976000,149976000,6620172,0,950.49976,11.5173645
150984000,150984000,6620172,0,950.45715,11.5159
151992000,151992000,6620172,0,950.36316,11.510284
152980000,152980000,6620172,0,950.3073,11.507721
153984000,153984000,6620172,0,950.3114,11.507751
154992000,154992000,6620172,0,950.31854,11.507843
155980000,155980000,6620172,0,950.33417,11.507477
156984000,156984000,6620172,0,950.28973,11.506989
157992000,157992000,6620172,0,950.3112,11.506897
158980000,158980000,6620172,0,950.30365,11.507141
159988000,159988000,6620172,0,950.31433,11.507263
160996000,160996000,6620172,0,950.3097,11.507324
161980000,161980000,6620172,0,950.32086,11.507507
162984000,162984000,6620172,0,950.3283,11.50766
163992000,163992000,6620172,0,950.3189,11.507935
164980000,164980000,6620172,0,950.31006,11.508209
165988000,165988000,6620172,0,950.30914,11.508179
166992000,166992000,6620172,0,950.32965,11.508148
167976000,167976000,6620172,0,950.3028,11.508209
168984000,168984000,6620172,0,950.3315,11.508362
169992000,169992000,6620172,0,950.321,11.508392
171000000,171000000,6620172,0,950.3383,11.508392
171988000,171988000,6620172,0,950.30646,11.508301
172996000,172996000,6620172,0,950.32214,11.508209
173976000,173976000,6620172,0,950.34375,11.508148
174988000,174988000,6620172,0,950.3154,11.50708
175992000,175992000,6620172,0,950.34546,11.509277
177000000,177000000,6620172,0,950.3876,11.512573
177988000,177988000,6620172,0,950.4333,11.515045
178996000,178996000,6620172,0,950.44586,11.514984
180000000,180000000,6620172,0,950.36346,11.510498
180984000,180984000,6620172,0,950.28296,11.507233
181996000,181996000,6620172,0,950.2995,11.506836
183000000,183000000,6620172,0,950.3093,11.507019
183988000,183988000,6620172,0,950.3003,11.506592
184996000,184996000,6620172,0,950.2752,11.506195
186000000,186000000,6620172,0,950.28827,11.506134
186984000,186984000,6620172,0,950.2706,11.506256
187992000,187992000,6620172,0,950.30334,11.506348
189000000,189000000,6620172,0,950.2945,11.506561
189988000,189988000,6620172,0,950.2896,11.506805
190992000,190992000,6620172,0,950.3109,11.5069275
192000000,192000000,6620172,0,950.3125,11.506989
192984000,192984000,6620172,0,950.33264,11.506989
193992000,193992000,6620172,0,950.29974,11.50705
195000000,195000000,6620172,0,950.29816,11.50708
195984000,195984000,6620172,0,950.2974,11.5069275
196996000,196996000,6620172,0,950.3122,11.506683
198000000,198000000,6620172,0,950.3008,11.506958
198984000,198984000,6620172,0,950.3633,11.510376
199992000,199992000,6620172,0,950.42554,11.51416
200976000,200976000,6620172,0,950.4152,11.514374
201984000,201984000,6620172,0,950.3544,11.510681
202992000,202992000,6620172,0,950.3195,11.507355
204000000,204000000,6620172,0,950.2939,11.5065
204984000,204984000,6620172,0,950.29865,11.5065
205996000,205996000,6620172,0,950.3028,11.506531
206980000,206980000,6620172,0,950.28906,11.506531
207984000,207984000,6620172,0,950.2958,11.5065
208996000,208996000,6620172,0,950.30255,11.506622
209976000,209976000,6620172,0,950.2917,11.506348
210988000,210988000,6620172,0,950.2884,11.506256
211992000,211992000,6620172,0,950.28687,11.506256
213000000,213000000,6620172,0,950.2889,11.506165
213984000,213984000,6620172,0,950.30554,11.506073
214992000,214992000,6620172,0,950.283,11.5060425
215976000,215976000,6620172,0,950.2916,11.505798
216988000,216988000,6620172,0,950.27496,11.505646
217992000,217992000,6620172,0,950.2967,11.505737
218976000,218976000,6620172,0,950.2882,11.505676
219984000,219984000,6620172,0,950.26996,11.505798
220996000,220996000,6620172,0,950.2896,11.505829
222000000,222000000,6620172,0,950.27344,11.505585
222988000,222988000,6620172,0,950.2727,11.505341
223992000,223992000,6620172,0,950.2792,11.505585
225000000,225000000,6620172,0,950.2839,11.5060425
225988000,225988000,6620172,0,950.2883,11.506165
226992000,226992000,6620172,0,950.293,11.506134
228000000,228000000,6620172,0,950.28394,11.506165
228988000,228988000,6620172,0,950.28503,11.506409
229996000,229996000,6620172,0,950.28546,11.506714
231000000,231000000,6620172,0,950.30615,11.506897
231984000,231984000,6620172,0,950.31683,11.507172
232992000,232992000,6620172,0,950.3087,11.507385
233976000,233976000,6620172,0,950.31067,11.507538
234988000,234988000,6620172,0,950.31195,11.50769
235992000,235992000,6620172,0,950.3441,11.5078125
237000000,237000000,6620172,0,950.3148,11.508087
237984000,237984000,6620172,0,950.3562,11.508362
238992000,238992000,6620172,0,950.32886,11.508514
239976000,239976000,6620172,0,950.31726,11.508667
240984000,240984000,6620172,0,950.3151,11.5086975
241992000,241992000,6620172,0,950.3439,11.509338
243000000,243000000,6620172,0,950.4184,11.513245
243984000,243984000,6620172,0,950.48553,11.516937
244996000,244996000,6620172,0,950.52795,11.519318
246000000,246000000,6620172,0,950.5091,11.518829
246984000,246984000,6620172,0,950.4006,11.513031
247992000,247992000,6620172,0,950.3263,11.508789
249000000,249000000,6620172,0,950.31287,11.508179
249988000,249988000,6620172,0,950.32904,11.50827
250996000,250996000,6620172,0,950.3338,11.507874
251976000,251976000,6620172,0,950.29156,11.507446
252984000,252984000,6620172,0,950.3111,11.507263
253992000,253992000,6620172,0,950.3103,11.507172
255000000,255000000,6620172,0,950.3187,11.50705
255988000,255988000,6620172,0,950.29425,11.506775
256996000,256996000,6620172,0,950.3107,11.506622
257976000,257976000,6620172,0,950.2763,11.506439
258988000,258988000,6620172,0,950.2939,11.506592
259992000,259992000,6620172,0,950.30206,11.506805
260976000,260976000,6620172,0,950.3008,11.506897
261984000,261984000,6620172,0,950.3097,11.507172
262996000,262996000,6620172,0,950.32965,11.507568
263976000,263976000,6620172,0,950.3026,11.507935
264988000,264988000,6620172,0,950.3241,11.50827
265996000,265996000,6620172,0,950.3198,11.508606
266976000,266976000,6620172,0,950.3162,11.507782
267984000,267984000,6620172,0,950.3562,11.509766
268992000,268992000,6620172,0,950.4265,11.513153
270000000,270000000,6620172,0,950.43396,11.514191
270984000,270984000,6620172,0,950.39996,11.512268
271992000,271992000,6620172,0,950.35565,11.510254
273000000,273000000,6620172,0,950.34216,11.509552
273984000,273984000,6620172,0,950.334,11.509491
274992000,274992000,6620172,0,950.34753,11.509491
276000000,276000000,6620172,0,950.34796,11.509552
276984000,276984000,6620172,0,950.33716,11.5095825
277996000,277996000,6620172,0,950.3427,11.509705
279000000,279000000,6620172,0,950.3542,11.509796
279988000,279988000,6620172,0,950.3443,11.509918
280996000,280996000,6620172,0,950.3642,11.510193
282000000,282000000,6620172,0,950.36255,11.5104065
282984000,282984000,6620172,0,950.3806,11.510834
283992000,283992000,6620172,0,950.36176,11.511047
285000000,285000000,6620172,0,950.36346,11.510956
285984000,285984000,6620172,0,950.36755,11.510681
286992000,286992000,6620172,0,950.36,11.510345
288000000,288000000,6620172,0,950.35425,11.51004
288988000,288988000,6620172,0,950.36676,11.509827
289992000,289992000,6620172,0,950.3332,11.509552
291000000,291000000,6620172,0,950.34186,11.509125
291984000,291984000,6620172,0,950.33484,11.508972
292992000,292992000,6620172,0,950.34296,11.509155
293980000,293980000,6620172,0,950.3324,11.509277
294984000,294984000,6620172,0,950.3495,11.509094
295992000,295992000,6620172,0,950.3425,11.508514
297000000,297000000,6620172,0,950.30817,11.508118
297988000,297988000,6620172,0,950.3187,11.507782
298996000,298996000,6620172,0,950.30676,11.507294
299976000,299976000,6620172,0,950.3003,11.507568
300984000,300984000,6620172,0,950.3681,11.5104065
301996000,301996000,6620172,0,950.3888,11.512634
303000000,303000000,6620172,0,950.38043,11.511932
303984000,303984000,6620172,0,950.3602,11.509644
304992000,304992000,6620172,0,950.3262,11.507965
305976000,305976000,6620172,0,950.30255,11.507446
306984000,306984000,6620172,0,950.30304,11.507202
307992000,307992000,6620172,0,950.30414,11.506805
309000000,309000000,6620172,0,950.2805,11.506653
309984000,309984000,6620172,0,950.3049,11.506592
310996000,310996000,6620172,0,950.29694,11.506561
312000000,312000000,6620172,0,950.2792,11.506348
312988000,312988000,6620172,0,950.28534,11.506409
313992000,313992000,6620172,0,950.28644,11.506348
315000000,315000000,6620172,0,950.2708,11.505188
315984000,315984000,6620172,0,950.2897,11.505737
316996000,316996000,6620172,0,950.33826,11.508759
318000000,318000000,6620172,0,950.39233,11.512024
318984000,318984000,6620172,0,950.3877,11.51236
319992000,319992000,6620172,0,950.32855,11.509033
321000000,321000000,6620172,0,950.2878,11.506531
321984000,321984000,6620172,0,950.27545,11.506256
322992000,322992000,6620172,0,950.2814,11.506378
324000000,324000000,6620172,0,950.28,11.506317
324984000,324984000,6620172,0,950.30206,11.506073
325992000,325992000,6620172,0,950.26886,11.505707
327000000,327000000,6620172,0,950.2855,11.50589
327984000,327984000,6620172,0,950.28094,11.505981
328992000,328992000,6620172,0,950.2813,11.506073
330000000,330000000,6620172,0,950.2888,11.506165
330984000,330984000,6620172,0,950.2902,11.506195
331992000,331992000,6620172,0,950.29395,11.506195
332976000,332976000,6620172,0,950.2914,11.506348
333984000,333984000,6620172,0,950.3087,11.506622
334992000,334992000,6620172,0,950.30914,11.506683
336000000,336000000,6620172,0,950.3127,11.5069275
336988000,336988000,6620172,0,950.30005,11.50705
337992000,337992000,6620172,0,950.29,11.506256
339000000,339000000,6620172,0,950.31055,11.507141
339984000,339984000,6620172,0,950.3432,11.509735
340996000,340996000,6620172,0,950.3563,11.511017
342000000,342000000,6620172,0,950.3439,11.509766
342984000,342984000,6620172,0,950.30975,11.508026
343996000,343996000,6620172,0,950.29974,11.507324
344980000,344980000,6620172,0,950.2988,11.507477
345984000,345984000,6620172,0,950.3135,11.507935
346992000,346992000,6620172,0,950.35004,11.50827
347976000,347976000,6620172,0,950.3397,11.508606
348984000,348984000,6620172,0,950.3438,11.508972
349992000,349992000,6620172,0,950.3486,11.509155
351000000,351000000,6620172,0,950.3422,11.509216
351988000,351988000,6620172,0,950.339,11.509186
352992000,352992000,6620172,0,950.3532,11.509216
354000000,354000000,6620172,0,950.3415,11.509094
354984000,354984000,6620172,0,950.33026,11.509003
355992000,355992000,6620172,0,950.33826,11.508942
357000000,357000000,6620172,0,950.32623,11.509064
357984000,357984000,6620172,0,950.3288,11.509064
358992000,358992000,6620172,0,950.3343,11.509125
360000000,360000000,6620172,0,950.36194,11.509094
360988000,360988000,6620172,0,950.3315,11.509033
361992000,361992000,6620172,0,950.33795,11.509003
363000000,363000000,6620172,0,950.3488,11.508972
363984000,363984000,6620172,0,950.3468,11.508911
364996000,364996000,6620172,0,950.3206,11.50885
366000000,366000000,6620172,0,950.30414,11.508057
366988000,366988000,6620172,0,950.3445,11.5095215
367992000,367992000,6620172,0,950.40826,11.513062
368976000,368976000,6620172,0,950.4421,11.516022
369988000,369988000,6620172,0,950.4414,11.516083
370996000,370996000,6620172,0,950.3879,11.511505
372000000,372000000,6620172,0,950.3009,11.507324
372988000,372988000,6620172,0,950.296,11.50647
373992000,373992000,6620172,0,950.2754,11.506622
375000000,375000000,6620172,0,950.28656,11.50647
375988000,375988000,6620172,0,950.2834,11.506378
376996000,376996000,6620172,0,950.30206,11.506378
377976000,377976000,6620172,0,950.29266,11.506439
378984000,378984000,6620172,0,950.3033,11.506531
379992000,379992000,6620172,0,950.29694,11.506531
381000000,381000000,6620172,0,950.2947,11.506683
381984000,381984000,6620172,0,950.3122,11.506683
382992000,382992000,6620172,0,950.2948,11.506683
384000000,384000000,6620172,0,950.3115,11.5069275
384984000,384984000,6620172,0,950.31006,11.507416
385992000,385992000,6620172,0,950.31964,11.507568
386976000,386976000,6620172,0,950.31647,11.507477
387988000,387988000,6620172,0,950.2969,11.507446
388992000,388992000,6620172,0,950.3192,11.507629
390000000,390000000,6620172,0,950.2973,11.507751
390984000,390984000,6620172,0,950.3205,11.50766
391996000,391996000,6620172,0,950.29834,11.5069275
393000000,393000000,6620172,0,950.2977,11.507111
393988000,393988000,6620172,0,950.34216,11.509644
394992000,394992000,6620172,0,950.3912,11.511475
396000000,396000000,6620172,0,950.3745,11.51062
396988000,396988000,6620172,0,950.32513,11.5086975
397992000,397992000,6620172,0,950.32336,11.507568
398976000,398976000,6620172,0,950.3097,11.507385
399984000,399984000,6620172,0,950.3006,11.507233
400992000,400992000,6620172,0,950.30774,11.507324
402000000,402000000,6620172,0,950.3073,11.50705
402988000,402988000,6620172,0,950.3142,11.507477
403996000,403996000,6620172,0,950.3256,11.508545
405000000,405000000,6620172,0,950.32904,11.509216
405984000,405984000,6620172,0,950.3298,11.508881
406996000,406996000,6620172,0,950.3164,11.507935
408000000,408000000,6620172,0,950.31226,11.507324
408988000,408988000,6620172,0,950.2985,11.507446
409996000,409996000,6620172,0,950.30005,11.507324
410976000,410976000,6620172,0,950.305,11.507385
411988000,411988000,6620172,0,950.31793,11.507935
412996000,412996000,6620172,0,950.3162,11.508209
414000000,414000000,6620172,0,950.3117,11.507965
414984000,414984000,6620172,0,950.3079,11.507599
415996000,415996000,6620172,0,950.3085,11.507507
417000000,417000000,6620172,0,950.32654,11.507477
417988000,417988000,6620172,0,950.30505,11.507477
418996000,418996000,6620172,0,950.30597,11.507568
419976000,419976000,6620172,0,950.3322,11.507721
420984000,420984000,6620172,0,950.30347,11.507599
421992000,421992000,6620172,0,950.31903,11.507538
422976000,422976000,6620172,0,950.3177,11.507477
423984000,423984000,6620172,0,950.3098,11.507355
424996000,424996000,6620172,0,950.30115,11.507294
426000000,426000000,6620172,0,950.3036,11.507294
426984000,426984000,6620172,0,950.326,11.507385
427992000,427992000,6620172,0,950.3049,11.50705
429000000,429000000,6620172,0,950.3012,11.506866
429988000,429988000,6620172,0,950.3084,11.506683
430996000,430996000,6620172,0,950.2948,11.506561
431976000,431976000,6620172,0,950.2946,11.506409
432988000,432988000,6620172,0,950.2882,11.506287
433992000,433992000,6620172,0,950.28534,11.506195
435000000,435000000,6620172,0,950.28156,11.506012
435984000,435984000,6620172,0,950.2685,11.505829
436992000,436992000,6620172,0,950.28076,11.505829
438000000,438000000,6620172,0,950.27216,11.505798
438984000,438984000,6620172,0,950.3011,11.505615
439996000,439996000,6620172,0,950.26605,11.505646
441000000,441000000,6620172,0,950.2685,11.505768
441984000,441984000,6620172,0,950.28394,11.50592
442996000,442996000,6620172,0,950.2896,11.506073
444000000,444000000,6620172,0,950.297,11.506409
444984000,444984000,6620172,0,950.3126,11.506683
445996000,445996000,6620172,0,950.3017,11.506866
447000000,447000000,6620172,0,950.2952,11.507111
447984000,447984000,6620172,0,950.3121,11.507355
448992000,448992000,6620172,0,950.32635,11.507385
449976000,449976000,6620172,0,950.30444,11.507446
450984000,450984000,6620172,0,950.3215,11.507477
451992000,451992000,6620172,0,950.3173,11.50824
453000000,453000000,6620172,0,950.4783,11.51712
453988000,453988000,6620172,0,950.71857,11.529907
454992000,454992000,6620172,0,950.9747,11.544525
456000000,456000000,6620172,0,951.24225,11.5590515
456984000,456984000,6620172,0,951.39874,11.568848
457996000,457996000,6620172,0,951.4258,11.571381
458976000,458976000,6620172,0,951.45294,11.571655
459988000,459988000,6620172,0,951.4521,11.57193
460996000,460996000,6620172,0,951.46594,11.572205
461976000,461976000,6620172,0,951.4298,11.572266
462988000,462988000,6620172,0,951.45953,11.572144
463992000,463992000,6620172,0,951.4556,11.5720825
465000000,465000000,6620172,0,951.4427,11.572144
465988000,465988000,6620172,0,951.4599,11.572144
466992000,466992000,6620172,0,951.46234,11.572144
468000000,468000000,6620172,0,951.4608,11.572052
468988000,468988000,6620172,0,951.4286,11.571991
469992000,469992000,6620172,0,951.4437,11.571991
470980000,470980000,6620172,0,951.44257,11.5720825
471984000,471984000,6620172,0,951.4517,11.572113
472992000,472992000,6620172,0,951.45795,11.572205
474000000,474000000,6620172,0,951.449,11.572266
474984000,474984000,6620172,0,951.44226,11.572357
475992000,475992000,6620172,0,951.4487,11.572479
477000000,477000000,6620172,0,951.45386,11.572693
477984000,477984000,6620172,0,951.4482,11.572571
478996000,478996000,6620172,0,951.37054,11.566956
480000000,480000000,6620172,0,951.2866,11.563721
480984000,480984000,6620172,0,951.30975,11.564178
481992000,481992000,6620172,0,951.33136,11.565857
483000000,483000000,6620172,0,951.3563,11.566101
483984000,483984000,6620172,0,951.3645,11.5660095
484992000,484992000,6620172,0,951.3322,11.565887
486000000,486000000,6620172,0,951.3368,11.565857
486988000,486988000,6620172,0,951.3206,11.5651245
487996000,487996000,6620172,0,951.3039,11.56369
489000000,489000000,6620172,0,951.39453,11.568481
489984000,489984000,6620172,0,951.505,11.574982
490992000,490992000,6620172,0,951.579,11.580902
492000000,492000000,6620172,0,951.7309,11.587616
492984000,492984000,6620172,0,951.87415,11.595367
493992000,493992000,6620172,0,951.9986,11.604218
494980000,494980000,6620172,0,952.1641,11.6128845
495988000,495988000,6620172,0,952.30865,11.621735
496996000,496996000,6620172,0,952.49615,11.630829
498000000,498000000,6620172,0,952.639,11.640015
498984000,498984000,6620172,0,952.80945,11.649048
499992000,499992000,6620172,0,952.9826,11.658478
501000000,501000000,6620172,0,953.1225,11.66806
501984000,501984000,6620172,0,953.3008,11.677429
502996000,502996000,6620172,0,953.47046,11.687073
503976000,503976000,6620172,0,953.6513,11.696533
504984000,504984000,6620172,0,953.82104,11.706268
505992000,505992000,6620172,0,953.99536,11.716034
507000000,507000000,6620172,0,954.1504,11.725861
507988000,507988000,6620172,0,954.3234,11.735474
508996000,508996000,6620172,0,954.497,11.745361
509980000,509980000,6620172,0,954.66864,11.755035
510988000,510988000,6620172,0,954.8514,11.764984
511996000,511996000,6620172,0,955.0347,11.775024
513000000,513000000,6620172,0,955.19824,11.784973
513984000,513984000,6620172,0,955.3813,11.794739
514992000,514992000,6620172,0,955.5304,11.804321
515980000,515980000,6620172,0,955.65765,11.810699
516988000,516988000,6620172,0,955.7034,11.813202
517996000,517996000,6620172,0,955.65216,11.810669
519000000,519000000,6620172,0,955.6161,11.808533
519984000,519984000,6620172,0,955.5861,11.807007
520992000,520992000,6620172,0,955.5698,11.805634
522000000,522000000,6620172,0,955.5241,11.80423
522984000,522984000,6620172,0,955.5278,11.803741
523996000,523996000,6620172,0,955.5879,11.806976
525000000,525000000,6620172,0,955.64874,11.811432
525988000,525988000,6620172,0,955.65936,11.811035
526992000,526992000,6620172,0,955.62366,11.809143
528000000,528000000,6620172,0,955.59607,11.808807
528988000,528988000,6620172,0,955.67285,11.812653
529996000,529996000,6620172,0,955.7741,11.817169
530980000,530980000,6620172,0,955.74396,11.81604
531984000,531984000,6620172,0,955.7083,11.81366
532996000,532996000,6620172,0,955.69714,11.813599
533980000,533980000,6620172,0,955.78015,11.818481
534988000,534988000,6620172,0,955.856,11.822662
535996000,535996000,6620172,0,955.82965,11.82019
537000000,537000000,6620172,0,955.76434,11.817383
537984000,537984000,6620172,0,955.78436,11.818665
538992000,538992000,6620172,0,955.92535,11.825653
539976000,539976000,6620172,0,955.98285,11.8284
540984000,540984000,6620172,0,955.8775,11.824463
541992000,541992000,6620172,0,955.829,11.82135
543000000,543000000,6620172,0,955.89014,11.824188
543988000,543988000,6620172,0,956.03485,11.832336
544996000,544996000,6620172,0,956.0168,11.832581
546000000,546000000,6620172,0,956.035,11.832581
546988000,546988000,6620172,0,956.0372,11.832581
547992000,547992000,6620172,0,956.0336,11.832581
548980000,548980000,6620172,0,956.0336,11.832581
549988000,549988000,6620172,0,956.0353,11.832581
