timestamp,timestamp_sample,device_id,x,y,z,temperature,error_count,samples
972000,972000,1310988,-0.009054748,0.0015978967,-0.0015978967,11.832275,0,1
1972000,1972000,1310988,0.007456851,-0.0005326322,-0.0015978967,11.832275,0,1
2972000,2972000,1310988,-0.00479369,0.0005326322,-0.0015978967,11.832275,0,1
3972000,3972000,1310988,-0.0053263223,-0.0010652645,0.0,11.832275,0,1
4972000,4972000,1310988,0.0015978967,-0.0037284256,-0.0005326322,11.832275,0,1
5972000,5972000,1310988,0.0031957934,-0.0010652645,0.0,11.832275,0,1
6972000,6972000,1310988,-0.0063915867,0.0005326322,0.004261058,11.832275,0,1
7972000,7972000,1310988,-0.0010652645,-0.0015978967,0.0058589545,11.832275,0,1
8972000,8972000,1310988,0.0,-0.0031957934,0.0015978967,11.832275,0,1
9972000,9972000,1310988,-0.0015978967,0.0031957934,-0.0010652645,11.832275,0,1
10972000,10972000,1310988,0.0053263223,-0.0010652645,-0.0015978967,11.832275,0,1
11972000,11972000,1310988,-0.00479369,0.0,0.0058589545,11.832275,0,1
12972000,12972000,1310988,-0.0026631611,0.0010652645,-0.0010652645,11.832275,0,1
13972000,13972000,1310988,-0.0010652645,0.0026631611,0.008522116,11.832275,0,1
14972000,14972000,1310988,0.0005326322,0.00479369,0.0010652645,11.832275,0,1
15972000,15972000,1310988,0.0015978967,0.0053263223,0.006924219,11.832275,0,1
16972000,16972000,1310988,-0.0010652645,0.0,0.0015978967,11.832275,0,1
17972000,17972000,1310988,0.00479369,0.0026631611,-0.0026631611,11.832275,0,1
18972000,18972000,1310988,-0.0015978967,-0.0037284256,0.0010652645,11.832275,0,1
19972000,19972000,1310988,-0.002130529,0.0037284256,0.0026631611,11.832275,0,1
20972000,20972000,1310988,-0.0053263223,0.0026631611,0.0037284256,11.832275,0,1
21972000,21972000,1310988,0.0010652645,0.0037284256,0.0031957934,11.832275,0,1
22972000,22972000,1310988,0.00479369,0.0005326322,-0.0015978967,11.832275,0,1
23972000,23972000,1310988,0.004261058,0.0031957934,-0.0053263223,11.832275,0,1
24972000,24972000,1310988,-0.0031957934,0.0005326322,-0.0037284256,11.832275,0,1
25972000,25972000,1310988,0.0,0.0,-0.0010652645,11.832275,0,1
26972000,26972000,1310988,0.0037284256,0.0015978967,-0.002130529,11.832275,0,1
27972000,27972000,1310988,0.0010652645,-0.0015978967,0.0,11.832275,0,1
28972000,28972000,1310988,0.0,0.0031957934,-0.0026631611,11.832275,0,1
29972000,29972000,1310988,0.0026631611,0.004261058,0.0037284256,11.832275,0,1
30972000,30972000,1310988,-0.002130529,0.002130529,0.002130529,11.832275,0,1
31972000,31972000,1310988,0.004261058,0.0026631611,-0.0015978967,11.832275,0,1
32972000,32972000,1310988,0.0026631611,-0.0031957934,-0.0010652645,11.832275,0,1
33972000,33972000,1310988,-0.002130529,-0.00479369,-0.0031957934,11.832275,0,1
34972000,34972000,1310988,-0.0010652645,0.002130529,-0.0015978967,11.832275,0,1
35972000,35972000,1310988,-0.0005326322,0.00479369,0.0010652645,11.832275,0,1
36972000,36972000,1310988,0.0005326322,0.0058589545,0.0010652645,11.832275,0,1
37972000,37972000,1310988,-0.0015978967,0.0015978967,-0.0010652645,11.832275,0,1
38972000,38972000,1310988,0.0,-0.004261058,-0.0010652645,11.832275,0,1
39972000,39972000,1310988,0.0015978967,-0.0031957934,0.0,11.832275,0,1
40972000,40972000,1310988,0.006924219,0.0026631611,-0.002130529,11.832275,0,1
41972000,41972000,1310988,0.0037284256,0.002130529,0.0058589545,11.832275,0,1
42972000,42972000,1310988,0.0,-0.0010652645,0.0015978967,11.832275,0,1
43972000,43972000,1310988,-0.0010652645,-0.006924219,-0.0026631611,11.832275,0,1
44972000,44972000,1310988,0.0,0.0010652645,-0.0058589545,11.832275,0,1
45972000,45972000,1310988,0.0005326322,0.002130529,-0.0010652645,11.832275,0,1
46972000,46972000,1310988,-0.0026631611,0.004261058,0.002130529,11.832275,0,1
47972000,47972000,1310988,0.0010652645,-0.0031957934,0.00958738,11.832275,0,1
48972000,48972000,1310988,0.0,-0.0026631611,0.002130529,11.832275,0,1
49972000,49972000,1310988,-0.0037284256,-0.0037284256,0.0005326322,11.832275,0,1
50972000,50972000,1310988,0.0005326322,0.0010652645,-0.0005326322,11.832275,0,1
51972000,51972000,1310988,0.0005326322,0.002130529,0.0058589545,11.832275,0,1
52972000,52972000,1310988,-0.0031957934,-0.0010652645,0.007989483,11.832275,0,1
53972000,53972000,1310988,-0.0026631611,0.002130529,-0.0031957934,11.832275,0,1
54972000,54972000,1310988,-0.002130529,-0.002130529,-0.0005326322,11.832275,0,1
55972000,55972000,1310988,0.0,-0.0010652645,0.0026631611,11.832275,0,1
56972000,56972000,1310988,0.0010652645,0.0,-0.004261058,11.832275,0,1
57972000,57972000,1310988,0.002130529,0.0058589545,0.002130529,11.832275,0,1
58972000,58972000,1310988,0.004261058,-0.002130529,-0.004261058,11.832275,0,1
59972000,59972000,1310988,-0.0010652645,0.0037284256,0.002130529,11.832275,0,1
60972000,60972000,1310988,0.002130529,0.0010652645,-0.0015978967,11.832275,0,1
61972000,61972000,1310988,0.0037284256,-0.00479369,-0.002130529,11.832275,0,1
62972000,62972000,1310988,0.0053263223,0.0005326322,-0.0015978967,11.832275,0,1
63972000,63972000,1310988,-0.00479369,-0.0005326322,-0.00479369,11.832275,0,1
64972000,64972000,1310988,0.0005326322,0.00479369,0.002130529,11.832275,0,1
65972000,65972000,1310988,0.0053263223,0.007989483,-0.0063915867,11.832275,0,1
66972000,66972000,1310988,-0.0005326322,-0.0010652645,-0.002130529,11.832275,0,1
67972000,67972000,1310988,-0.0037284256,0.0005326322,0.0010652645,11.832275,0,1
68972000,68972000,1310988,0.0031957934,0.0010652645,0.0031957934,11.832275,0,1
69972000,69972000,1310988,0.0031957934,-0.0015978967,-0.0026631611,11.832275,0,1
70972000,70972000,1310988,0.004261058,0.0005326322,0.0015978967,11.832275,0,1
71972000,71972000,1310988,-0.002130529,-0.0037284256,0.0,11.832275,0,1
72972000,72972000,1310988,-0.0010652645,-0.009054748,-0.0026631611,11.832275,0,1
73972000,73972000,1310988,-0.002130529,-0.007989483,0.0031957934,11.832275,0,1
74972000,74972000,1310988,-0.0037284256,0.0026631611,0.0,11.832275,0,1
75972000,75972000,1310988,0.0005326322,0.008522116,-0.007456851,11.832275,0,1
76972000,76972000,1310988,-0.0058589545,0.0026631611,0.0010652645,11.832275,0,1
77972000,77972000,1310988,-0.004261058,-0.0026631611,0.0,11.832275,0,1
78972000,78972000,1310988,-0.0058589545,0.006924219,0.0053263223,11.832275,0,1
79972000,79972000,1310988,0.0015978967,-0.0015978967,0.0031957934,11.832275,0,1
80972000,80972000,1310988,0.004261058,0.002130529,0.00479369,11.832275,0,1
81972000,81972000,1310988,0.0058589545,-0.0031957934,0.0015978967,11.832275,0,1
82972000,82972000,1310988,0.004261058,-0.0026631611,-0.004261058,11.832275,0,1
83972000,83972000,1310988,0.0010652645,-0.0010652645,-0.0015978967,11.832275,0,1
84972000,84972000,1310988,-0.007456851,0.0015978967,-0.0010652645,11.832275,0,1
85972000,85972000,1310988,0.0,-0.0005326322,-0.004261058,11.832275,0,1
86972000,86972000,1310988,0.0031957934,-0.0031957934,0.002130529,11.832275,0,1
87972000,87972000,1310988,0.0,-0.0026631611,0.0031957934,11.832275,0,1
88972000,88972000,1310988,0.0010652645,-0.004261058,0.0063915867,11.832275,0,1
89972000,89972000,1310988,-0.0010652645,0.0005326322,0.0037284256,11.832275,0,1
90972000,90972000,1310988,0.004261058,0.00479369,0.0063915867,11.832275,0,1
91972000,91972000,1310988,0.0010652645,0.0031957934,0.002130529,11.832275,0,1
92972000,92972000,1310988,-0.0005326322,0.0026631611,-0.0026631611,11.832275,0,1
93972000,93972000,1310988,0.002130529,-0.0005326322,-0.0010652645,11.832275,0,1
94972000,94972000,1310988,0.0,0.0005326322,0.0053263223,11.832275,0,1
95972000,95972000,1310988,-0.0031957934,-0.0026631611,0.0031957934,11.832275,0,1
96972000,96972000,1310988,0.0037284256,0.0031957934,0.0005326322,11.832275,0,1
97972000,97972000,1310988,-0.0010652645,0.00479369,-0.0026631611,11.832275,0,1
98972000,98972000,1310988,-0.0005326322,-0.0026631611,0.0037284256,11.832275,0,1
99972000,99972000,1310988,0.0010652645,-0.0010652645,-0.0010652645,11.832275,0,1
100972000,100972000,1310988,-0.002130529,-0.0010652645,0.0005326322,11.832275,0,1
101972000,101972000,1310988,-0.0005326322,0.0010652645,0.0005326322,11.832275,0,1
102972000,102972000,1310988,-0.0037284256,-0.002130529,0.0026631611,11.832275,0,1
103972000,103972000,1310988,-0.0053263223,0.0037284256,0.0015978967,11.832275,0,1
104972000,104972000,1310988,0.0053263223,-0.0026631611,0.0015978967,11.832275,0,1
105972000,105972000,1310988,-0.0026631611,0.0005326322,0.004261058,11.832275,0,1
106972000,106972000,1310988,0.0010652645,-0.0010652645,-0.002130529,11.832275,0,1
107972000,107972000,1310988,0.0053263223,0.00958738,-0.0005326322,11.832275,0,1
108972000,108972000,1310988,0.0005326322,0.0037284256,0.0015978967,11.832275,0,1
109972000,109972000,1310988,0.0015978967,0.0,0.006924219,11.832275,0,1
110972000,110972000,1310988,0.0026631611,-0.0005326322,-0.0010652645,11.832275,0,1
111972000,111972000,1310988,0.0005326322,0.0053263223,-0.006924219,11.832275,0,1
112972000,112972000,1310988,0.0058589545,0.008522116,-0.00479369,11.832275,0,1
113972000,113972000,1310988,0.0015978967,0.0005326322,0.0037284256,11.832275,0,1
114972000,114972000,1310988,0.0015978967,0.007989483,0.0037284256,11.832275,0,1
115972000,115972000,1310988,0.025033714,0.06018744,-0.05752428,11.831818,0,1
116972000,116972000,1310988,-0.0015978967,0.096939065,-0.009054748,11.807556,0,1
117972000,117972000,1310988,-0.015446335,-0.009054748,-0.029294772,11.76413,0,1
118972000,118972000,1310988,0.028229509,-0.05219796,-0.0314253,11.725403,0,1
119972000,119972000,1310988,0.025566347,-0.033023197,-0.02396845,11.69989,0,1
120972000,120972000,1310988,0.011717909,-0.0005326322,-0.006924219,11.679779,0,1
121972000,121972000,1310988,-0.0026631611,0.004261058,0.0031957934,11.661438,0,1
122972000,122972000,1310988,-0.0026631611,0.012250541,-0.006924219,11.643799,0,1
123972000,123972000,1310988,-0.028229509,0.007989483,-0.020772656,11.625549,0,1
124972000,124972000,1310988,-0.27057716,0.29294774,-0.28336033,11.606781,0,1
125972000,125972000,1310988,0.06178534,0.4016047,-0.6562029,11.588409,0,1
126972000,126972000,1310988,0.16298546,0.22903186,-0.5656554,11.572174,0,1
127972000,127972000,1310988,-0.098004326,0.5789712,-0.3930826,11.567413,0,1
128972000,128972000,1310988,-0.02609898,0.7451525,-0.44101948,11.564514,0,1
129972000,129972000,1310988,0.17150758,0.62264705,-0.42290998,11.552582,0,1
130972000,130972000,1310988,0.36272255,0.3387541,-0.33182988,11.535431,0,1
131972000,131972000,1310988,0.37284255,-0.0644485,-0.23116238,11.518066,0,1
132972000,132972000,1310988,0.23648871,-0.056459017,-0.09960223,11.510529,0,1
133972000,133972000,1310988,0.10066749,-0.00958738,0.0314253,11.508331,0,1
134972000,134972000,1310988,0.002130529,0.010120012,0.06018744,11.507507,0,1
135972000,135972000,1310988,-0.036218993,0.00479369,0.06977482,11.507233,0,1
136972000,136972000,1310988,-0.033023197,0.002130529,0.04261058,11.50705,0,1
137972000,137972000,1310988,-0.02609898,0.0015978967,0.010120012,11.506775,0,1
138972000,138972000,1310988,-0.017044231,0.0063915867,0.007989483,11.506653,0,1
139972000,139972000,1310988,0.0,0.0026631611,-0.0031957934,11.506683,0,1
140972000,140972000,1310988,0.0031957934,-0.0053263223,0.0010652645,11.506592,0,1
141972000,141972000,1310988,0.0026631611,-0.0037284256,0.0026631611,11.506561,0,1
142972000,142972000,1310988,0.0010652645,0.0015978967,-0.0037284256,11.506439,0,1
143972000,143972000,1310988,-0.0037284256,-0.0015978967,-0.0031957934,11.506256,0,1
144972000,144972000,1310988,-0.0037284256,0.0015978967,-0.002130529,11.506348,0,1
145972000,145972000,1310988,-0.624245,0.11611383,-0.22583607,11.5061035,0,1
146972000,146972000,1310988,-0.18588865,0.48203218,-0.41864893,11.507111,0,1
147972000,147972000,1310988,-0.090014845,0.64182186,-0.48682585,11.511078,0,1
148972000,148972000,1310988,0.066046394,0.56938386,-0.4293016,11.514893,0,1
149972000,149972000,1310988,0.386691,0.2545982,-0.27803403,11.5173645,0,1
150972000,150972000,1310988,0.45859635,0.029294772,-0.11025487,11.5159,0,1
151972000,151972000,1310988,0.19441076,-0.037284255,0.056991648,11.510284,0,1
152972000,152972000,1310988,0.023435818,0.012250541,0.1272991,11.507721,0,1
153972000,153972000,1310988,-0.056991648,0.03355583,0.11984225,11.507751,0,1
154972000,154972000,1310988,-0.072970614,0.0127831735,0.084155895,11.507843,0,1
155972000,155972000,1310988,-0.058589544,-0.0015978967,0.042077947,11.507477,0,1
156972000,156972000,1310988,-0.029294772,-0.006924219,0.015978966,11.506989,0,1
157972000,157972000,1310988,-0.01438107,-0.0031957934,-0.0010652645,11.506897,0,1
158972000,158972000,1310988,-0.0026631611,0.0053263223,0.002130529,11.507141,0,1
159972000,159972000,1310988,0.0005326322,0.009054748,-0.00479369,11.507263,0,1
160972000,160972000,1310988,-0.0015978967,0.0026631611,-0.0031957934,11.507324,0,1
161972000,161972000,1310988,0.007989483,0.007989483,0.0053263223,11.507507,0,1
162972000,162972000,1310988,-0.00479369,-0.0010652645,0.0015978967,11.50766,0,1
163972000,163972000,1310988,-0.0026631611,0.009054748,-0.0005326322,11.507935,0,1
164972000,164972000,1310988,0.0037284256,0.0037284256,0.0015978967,11.508209,0,1
165972000,165972000,1310988,0.0010652645,0.0026631611,0.0010652645,11.508179,0,1
166972000,166972000,1310988,-0.0005326322,0.0,0.0010652645,11.508148,0,1
167972000,167972000,1310988,0.00479369,0.002130529,0.0026631611,11.508209,0,1
168972000,168972000,1310988,-0.0015978967,0.010652645,-0.0015978967,11.508362,0,1
169972000,169972000,1310988,0.002130529,-0.008522116,0.0,11.508392,0,1
170972000,170972000,1310988,0.002130529,-0.004261058,-0.00479369,11.508392,0,1
171972000,171972000,1310988,0.00479369,-0.00479369,-0.004261058,11.508301,0,1
172972000,172972000,1310988,0.009054748,-0.0037284256,0.0037284256,11.508209,0,1
173972000,173972000,1310988,0.8202536,0.015978966,0.4213121,11.508148,0,1
174972000,174972000,1310988,0.294013,0.3882889,0.39734364,11.50708,0,1
175972000,175972000,1310988,0.11930962,0.58696073,0.4910869,11.509277,0,1
176972000,176972000,1310988,0.00479369,0.588026,0.4607269,11.512482,0,1
177972000,177972000,1310988,-0.25513083,0.36218992,0.3355583,11.515045,0,1
178972000,178972000,1310988,-0.4564658,0.06870956,0.22849922,11.514984,0,1
179972000,179972000,1310988,-0.27164245,-0.027164243,0.015446335,11.51062,0,1
180972000,180972000,1310988,-0.07190535,-0.0063915867,-0.10865697,11.507233,0,1
181972000,181972000,1310988,0.029827405,0.02130529,-0.120907515,11.506836,0,1
182972000,182972000,1310988,0.07882957,0.017044231,-0.08948222,11.507019,0,1
183972000,183972000,1310988,0.07084008,0.0015978967,-0.05539375,11.506592,0,1
184972000,184972000,1310988,0.041545313,-0.011717909,-0.015978966,11.506195,0,1
185972000,185972000,1310988,0.015446335,-0.0053263223,-0.00479369,11.506134,0,1
186972000,186972000,1310988,0.0026631611,0.009054748,0.007456851,11.506256,0,1
187972000,187972000,1310988,-0.0037284256,0.0015978967,0.008522116,11.506348,0,1
188972000,188972000,1310988,-0.0015978967,-0.0053263223,0.008522116,11.506561,0,1
189972000,189972000,1310988,0.002130529,-0.0005326322,-0.0026631611,11.506805,0,1
190972000,190972000,1310988,0.0026631611,-0.0010652645,-0.002130529,11.5069275,0,1
191972000,191972000,1310988,0.0015978967,0.0031957934,0.002130529,11.506989,0,1
192972000,192972000,1310988,-0.0005326322,0.0010652645,0.0015978967,11.506989,0,1
193972000,193972000,1310988,-0.0015978967,-0.0037284256,0.007456851,11.50705,0,1
194972000,194972000,1310988,0.00479369,0.0053263223,0.0053263223,11.50708,0,1
195972000,195972000,1310988,-0.002130529,0.011185277,-0.006924219,11.5069275,0,1
196972000,196972000,1310988,-0.8202536,0.041545313,-0.27324033,11.506683,0,1
197972000,197972000,1310988,-0.2082592,0.4245079,-0.35260254,11.506897,0,1
198972000,198972000,1310988,0.007456851,0.48043427,-0.40533313,11.510376,0,1
199972000,199972000,1310988,0.21837921,0.330232,-0.3174488,11.51416,0,1
200972000,200972000,1310988,0.33609092,0.08681905,-0.20293288,11.514374,0,1
201972000,201972000,1310988,0.21891184,-0.019707393,-0.07829694,11.510681,0,1
202972000,202972000,1310988,0.07403588,-0.022903185,0.030360037,11.507355,0,1
203972000,203972000,1310988,0.0026631611,0.0015978967,0.05752428,11.5065,0,1
204972000,204972000,1310988,-0.025566347,0.0031957934,0.049002163,11.5065,0,1
205972000,205972000,1310988,-0.025566347,0.0,0.026631612,11.506531,0,1
206972000,206972000,1310988,-0.015446335,0.0031957934,0.0127831735,11.506531,0,1
207972000,207972000,1310988,-0.004261058,-0.007989483,0.0063915867,11.5065,0,1
208972000,208972000,1310988,0.14966966,0.008522116,0.049534798,11.506622,0,1
209972000,209972000,1310988,0.07084008,0.013848438,0.101200126,11.506348,0,1
210972000,210972000,1310988,-0.019707393,0.033023197,0.12197278,11.506256,0,1
211972000,211972000,1310988,-0.061252706,0.017576864,0.113983296,11.506256,0,1
212972000,212972000,1310988,-0.058589544,-0.0005326322,0.068176925,11.506165,0,1
213972000,213972000,1310988,-0.03888215,0.0026631611,0.03568636,11.506073,0,1
214972000,214972000,1310988,-0.020240024,0.00958738,0.0127831735,11.5060425,0,1
215972000,215972000,1310988,-0.009054748,-0.004261058,0.00479369,11.505798,0,1
216972000,216972000,1310988,-0.0010652645,-0.0015978967,0.002130529,11.505646,0,1
217972000,217972000,1310988,0.008522116,0.0037284256,-0.0058589545,11.505737,0,1
218972000,218972000,1310988,0.0037284256,-0.007456851,0.0063915867,11.505676,0,1
219972000,219972000,1310988,-0.0015978967,-0.0015978967,0.0037284256,11.505798,0,1
220972000,220972000,1310988,0.11611383,0.0015978967,0.07137272,11.505829,0,1
221972000,221972000,1310988,0.18748654,0.020240024,0.10546118,11.505585,0,1
222972000,222972000,1310988,0.0479369,0.05912218,0.17736652,11.505341,0,1
223972000,223972000,1310988,-0.051665325,0.053263225,0.17257284,11.505585,0,1
224972000,224972000,1310988,-0.087884314,0.035153728,0.13369069,11.5060425,0,1
225972000,225972000,1310988,-0.08948222,0.013315806,0.080960095,11.506165,0,1
226972000,226972000,1310988,-0.05273059,0.0005326322,0.027164243,11.506134,0,1
227972000,227972000,1310988,-0.025566347,-0.0026631611,0.00958738,11.506165,0,1
228972000,228972000,1310988,-0.01438107,-0.004261058,-0.0058589545,11.506409,0,1
229972000,229972000,1310988,0.002130529,0.0,-0.007456851,11.506714,0,1
230972000,230972000,1310988,0.004261058,0.0005326322,-0.0015978967,11.506897,0,1
231972000,231972000,1310988,0.0005326322,0.011185277,0.0031957934,11.507172,0,1
232972000,232972000,1310988,0.08681905,-0.0015978967,0.07243799,11.507385,0,1
233972000,233972000,1310988,0.12942964,0.008522116,0.080960095,11.507538,0,1
234972000,234972000,1310988,0.033023197,0.027164243,0.120907515,11.50769,0,1
235972000,235972000,1310988,-0.039947417,0.028229509,0.12942964,11.5078125,0,1
236972000,236972000,1310988,-0.061252706,0.00958738,0.08681905,11.508057,0,1
237972000,237972000,1310988,-0.053795855,0.0058589545,0.056991648,11.508362,0,1
238972000,238972000,1310988,-0.040480047,0.013848438,0.025033714,11.508514,0,1
239972000,239972000,1310988,-0.01438107,-0.009054748,0.006924219,11.508667,0,1
240972000,240972000,1310988,-0.82611257,0.056991648,-0.23861924,11.5086975,0,1
241972000,241972000,1310988,-0.21678132,0.4511395,-0.36325517,11.509338,0,1
242972000,242972000,1310988,-0.098004326,0.6295713,-0.4809669,11.513153,0,1
243972000,243972000,1310988,-0.0026631611,0.63702816,-0.46179214,11.516937,0,1
244972000,244972000,1310988,0.28229508,0.386691,-0.32437304,11.519318,0,1
245972000,245972000,1310988,0.5278385,0.0644485,-0.22264028,11.518921,0,1
246972000,246972000,1310988,0.28229508,-0.0479369,0.023435818,11.513031,0,1
247972000,247972000,1310988,0.070307456,0.0037284256,0.1470065,11.508789,0,1
248972000,248972000,1310988,-0.05539375,0.03781689,0.14274544,11.508179,0,1
249972000,249972000,1310988,-0.08522116,0.025566347,0.10013486,11.50827,0,1
250972000,250972000,1310988,-0.06870956,0.00479369,0.05486112,11.507874,0,1
251972000,251972000,1310988,-0.03568636,0.0005326322,0.023435818,11.507446,0,1
252972000,252972000,1310988,-0.021837922,-0.0058589545,0.0010652645,11.507263,0,1
253972000,253972000,1310988,0.0026631611,-0.0037284256,-0.007989483,11.507172,0,1
254972000,254972000,1310988,0.007456851,0.007456851,-0.006924219,11.50705,0,1
255972000,255972000,1310988,0.0010652645,-0.0037284256,-0.0063915867,11.506775,0,1
256972000,256972000,1310988,0.0031957934,-0.0058589545,-0.0005326322,11.506622,0,1
257972000,257972000,1310988,0.002130529,-0.00479369,0.0005326322,11.506439,0,1
258972000,258972000,1310988,0.0026631611,0.0005326322,0.006924219,11.506592,0,1
259972000,259972000,1310988,0.0037284256,0.0031957934,0.0015978967,11.506805,0,1
260972000,260972000,1310988,-0.0005326322,-0.006924219,0.004261058,11.506897,0,1
261972000,261972000,1310988,0.0,-0.0026631611,0.0,11.507172,0,1
262972000,262972000,1310988,0.008522116,0.0010652645,0.0053263223,11.507568,0,1
263972000,263972000,1310988,-0.004261058,0.0015978967,0.004261058,11.507935,0,1
264972000,264972000,1310988,-0.0058589545,-0.002130529,0.0,11.50827,0,1
265972000,265972000,1310988,0.7749799,0.0015978967,0.45540056,11.508606,0,1
266972000,266972000,1310988,0.2545982,0.30200246,0.376571,11.507782,0,1
267972000,267972000,1310988,0.00479369,0.38615838,0.4048005,11.509766,0,1
268972000,268972000,1310988,-0.16245283,0.28708878,0.33502567,11.513153,0,1
269972000,269972000,1310988,-0.2609898,0.10439592,0.21944448,11.514221,0,1
270972000,270972000,1310988,-0.1949434,0.0,0.09853696,11.512268,0,1
271972000,271972000,1310988,-0.0974717,-0.02130529,0.0005326322,11.510254,0,1
272972000,272972000,1310988,-0.020772656,-0.0005326322,-0.027164243,11.509552,0,1
273972000,273972000,1310988,0.015446335,-0.002130529,-0.0314253,11.509491,0,1
274972000,274972000,1310988,0.018642128,-0.00479369,-0.027164243,11.509491,0,1
275972000,275972000,1310988,0.018109497,-0.0010652645,-0.004261058,11.509552,0,1
276972000,276972000,1310988,0.007989483,-0.00958738,-0.004261058,11.5095825,0,1
277972000,277972000,1310988,0.0031957934,-0.0026631611,0.0063915867,11.509705,0,1
278972000,278972000,1310988,0.00479369,-0.0015978967,-0.0005326322,11.509796,0,1
279972000,279972000,1310988,0.004261058,0.0031957934,-0.0010652645,11.509918,0,1
280972000,280972000,1310988,-0.1304949,0.004261058,-0.03781689,11.510193,0,1
281972000,281972000,1310988,-0.0628506,0.024501082,-0.103863284,11.5104065,0,1
282972000,282972000,1310988,0.025566347,0.025033714,-0.11132014,11.510834,0,1
283972000,283972000,1310988,0.06711166,0.015978966,-0.0958738,11.511047,0,1
284972000,284972000,1310988,0.048469532,0.0031957934,-0.051132694,11.510956,0,1
285972000,285972000,1310988,0.04261058,-0.0010652645,-0.03089267,11.510681,0,1
286972000,286972000,1310988,0.015978966,-0.007989483,-0.00479369,11.510345,0,1
287972000,287972000,1310988,0.002130529,0.002130529,0.0031957934,11.51004,0,1
288972000,288972000,1310988,0.0,0.0,0.007456851,11.509827,0,1
289972000,289972000,1310988,0.008522116,0.002130529,0.0,11.509552,0,1
290972000,290972000,1310988,-0.16298546,0.0037284256,-0.053263225,11.509155,0,1
291972000,291972000,1310988,-0.070307456,0.036218993,-0.128897,11.508972,0,1
292972000,292972000,1310988,0.020240024,0.04261058,-0.13315806,11.509155,0,1
293972000,293972000,1310988,0.07084008,0.02396845,-0.113983296,11.509277,0,1
294972000,294972000,1310988,0.06870956,0.006924219,-0.068176925,11.509094,0,1
295972000,295972000,1310988,0.05006743,-0.0031957934,-0.042077947,11.508514,0,1
296972000,296972000,1310988,0.027164243,-0.0058589545,-0.010120012,11.508118,0,1
297972000,297972000,1310988,0.007989483,0.0005326322,-0.004261058,11.507782,0,1
298972000,298972000,1310988,-0.58962387,0.060720075,-0.20985709,11.507294,0,1
299972000,299972000,1310988,-0.12623383,0.2743056,-0.36432046,11.507568,0,1
300972000,300972000,1310988,0.07243799,0.28708878,-0.34674358,11.5104065,0,1
301972000,301972000,1310988,0.21252026,0.16937704,-0.2593919,11.512634,0,1
302972000,302972000,1310988,0.21198763,0.037284255,-0.16085494,11.511993,0,1
303972000,303972000,1310988,0.13688648,-0.0010652645,-0.06498113,11.509644,0,1
304972000,304972000,1310988,0.051132694,-0.015446335,0.00479369,11.507965,0,1
305972000,305972000,1310988,-0.0026631611,0.0005326322,0.017576864,11.507446,0,1
306972000,306972000,1310988,-0.010120012,0.0053263223,0.0127831735,11.507202,0,1
307972000,307972000,1310988,-0.017044231,-0.0005326322,0.012250541,11.506805,0,1
308972000,308972000,1310988,-0.00479369,0.0053263223,0.008522116,11.506653,0,1
309972000,309972000,1310988,0.0015978967,0.0063915867,0.0058589545,11.506592,0,1
310972000,310972000,1310988,0.0015978967,0.002130529,-0.002130529,11.506561,0,1
311972000,311972000,1310988,0.007989483,-0.00479369,0.0,11.506348,0,1
312972000,312972000,1310988,-0.002130529,-0.0037284256,-0.0015978967,11.506409,0,1
313972000,313972000,1310988,0.04527374,-0.004261058,0.0010652645,11.506348,0,1
314972000,314972000,1310988,0.49321744,0.19441076,0.38083205,11.5052185,0,1
315972000,315972000,1310988,0.14221281,0.50653327,0.4825648,11.505737,0,1
316972000,316972000,1310988,-0.017576864,0.5203817,0.44208476,11.508759,0,1
317972000,317972000,1310988,-0.2396845,0.31052458,0.3334278,11.511963,0,1
318972000,318972000,1310988,-0.36911413,0.07137272,0.1949434,11.51236,0,1
319972000,319972000,1310988,-0.22210763,-0.021837922,0.046339005,11.509033,0,1
320972000,320972000,1310988,-0.07084008,-0.011717909,-0.06338324,11.506561,0,1
321972000,321972000,1310988,0.012250541,0.015446335,-0.07243799,11.506256,0,1
322972000,322972000,1310988,0.05965481,-0.0010652645,-0.06657903,11.506378,0,1
323972000,323972000,1310988,0.044208474,0.0010652645,-0.034088463,11.506317,0,1
324972000,324972000,1310988,0.029827405,0.0,-0.011185277,11.506073,0,1
325972000,325972000,1310988,0.015446335,-0.01438107,-0.0037284256,11.505707,0,1
326972000,326972000,1310988,0.0010652645,0.0,0.0015978967,11.50589,0,1
327972000,327972000,1310988,-0.0026631611,-0.0015978967,-0.0005326322,11.505981,0,1
328972000,328972000,1310988,-0.0015978967,0.004261058,0.0026631611,11.506073,0,1
329972000,329972000,1310988,0.0015978967,-0.0031957934,0.0010652645,11.506165,0,1
330972000,330972000,1310988,0.0005326322,-0.007456851,0.0015978967,11.506195,0,1
331972000,331972000,1310988,0.0,0.002130529,0.0,11.506195,0,1
332972000,332972000,1310988,-0.0010652645,0.0031957934,0.0026631611,11.506348,0,1
333972000,333972000,1310988,0.007456851,0.0037284256,-0.006924219,11.506622,0,1
334972000,334972000,1310988,0.0026631611,-0.00479369,0.0005326322,11.506683,0,1
335972000,335972000,1310988,0.0058589545,0.0010652645,0.00958738,11.5069275,0,1
336972000,336972000,1310988,0.19387813,-0.006924219,0.050600063,11.50705,0,1
337972000,337972000,1310988,0.31851408,0.16618125,0.26738137,11.506256,0,1
338972000,338972000,1310988,0.034088463,0.3089267,0.36485308,11.50708,0,1
339972000,339972000,1310988,-0.120907515,0.25406557,0.31957933,11.509735,0,1
340972000,340972000,1310988,-0.21837921,0.11664646,0.2247708,11.511017,0,1
341972000,341972000,1310988,-0.19121496,0.011717909,0.12357068,11.509827,0,1
342972000,342972000,1310988,-0.08841695,-0.0127831735,0.03781689,11.508026,0,1
343972000,343972000,1310988,-0.028229509,-0.007456851,-0.0026631611,11.507324,0,1
344972000,344972000,1310988,-0.004261058,-0.0037284256,-0.019707393,11.507477,0,1
345972000,345972000,1310988,0.012250541,0.0026631611,-0.006924219,11.507935,0,1
346972000,346972000,1310988,0.020772656,-0.002130529,-0.00479369,11.50827,0,1
347972000,347972000,1310988,0.0053263223,0.0037284256,-0.0026631611,11.508606,0,1
348972000,348972000,1310988,0.0053263223,0.0053263223,-0.0031957934,11.508972,0,1
349972000,349972000,1310988,0.0031957934,-0.0005326322,0.0031957934,11.509155,0,1
350972000,350972000,1310988,-0.0053263223,0.007456851,0.0026631611,11.509216,0,1
351972000,351972000,1310988,0.004261058,0.0026631611,-0.0026631611,11.509186,0,1
352972000,352972000,1310988,-0.0058589545,0.006924219,-0.006924219,11.509216,0,1
353972000,353972000,1310988,0.0031957934,0.0031957934,-0.0037284256,11.509094,0,1
354972000,354972000,1310988,0.0031957934,0.002130529,-0.002130529,11.509003,0,1
355972000,355972000,1310988,0.0026631611,-0.0010652645,0.0,11.508942,0,1
356972000,356972000,1310988,0.0031957934,-0.0010652645,-0.0005326322,11.509064,0,1
357972000,357972000,1310988,-0.0010652645,-0.014913702,-0.0026631611,11.509064,0,1
358972000,358972000,1310988,0.0037284256,0.0058589545,0.002130529,11.509125,0,1
359972000,359972000,1310988,-0.0015978967,0.0037284256,-0.0031957934,11.509094,0,1
360972000,360972000,1310988,-0.0015978967,-0.00958738,-0.002130529,11.509033,0,1
361972000,361972000,1310988,0.0,-0.0015978967,0.0005326322,11.509003,0,1
362972000,362972000,1310988,-0.0015978967,-0.0037284256,-0.0005326322,11.508972,0,1
363972000,363972000,1310988,0.0005326322,-0.0005326322,0.0010652645,11.508911,0,1
364972000,364972000,1310988,-0.15286545,0.004261058,-0.026631612,11.50885,0,1
365972000,365972000,1310988,-0.4644553,0.22050974,-0.4133226,11.508087,0,1
366972000,366972000,1310988,-0.1454086,0.525708,-0.51026165,11.5095215,0,1
367972000,367972000,1310988,0.0,0.57311225,-0.4527374,11.513062,0,1
368972000,368972000,1310988,0.23435818,0.38242993,-0.34940675,11.516022,0,1
369972000,369972000,1310988,0.4282363,0.08894958,-0.21038973,11.516083,0,1
370972000,370972000,1310988,0.27324033,-0.03195793,-0.05912218,11.511505,0,1
371972000,371972000,1310988,0.08468852,-0.024501082,0.07137272,11.507355,0,1
372972000,372972000,1310988,-0.008522116,0.00958738,0.0974717,11.50647,0,1
373972000,373972000,1310988,-0.053795855,0.015446335,0.08362326,11.506622,0,1
374972000,374972000,1310988,-0.05219796,0.0,0.05273059,11.50647,0,1
375972000,375972000,1310988,-0.027696876,0.002130529,0.024501082,11.506378,0,1
376972000,376972000,1310988,-0.015446335,0.0005326322,0.0058589545,11.506378,0,1
377972000,377972000,1310988,-0.0005326322,0.002130529,-0.0053263223,11.506439,0,1
378972000,378972000,1310988,-0.0010652645,0.0037284256,-0.00958738,11.506531,0,1
379972000,379972000,1310988,0.010120012,-0.0037284256,-0.0053263223,11.506531,0,1
380972000,380972000,1310988,-0.00479369,-0.0026631611,-0.0026631611,11.506683,0,1
381972000,381972000,1310988,0.21038973,0.0031957934,0.09427591,11.506683,0,1
382972000,382972000,1310988,0.10918961,0.04527374,0.15339808,11.506683,0,1
383972000,383972000,1310988,-0.01438107,0.05273059,0.175236,11.506897,0,1
384972000,384972000,1310988,-0.07456851,0.041012682,0.14008227,11.507416,0,1
385972000,385972000,1310988,-0.08735169,0.016511599,0.09374327,11.507568,0,1
386972000,386972000,1310988,-0.06178534,0.0058589545,0.04474111,11.507477,0,1
387972000,387972000,1310988,-0.023435818,-0.0005326322,0.022903185,11.507446,0,1
388972000,388972000,1310988,-0.007456851,0.00958738,0.0053263223,11.507629,0,1
389972000,389972000,1310988,-0.0010652645,0.011185277,-0.0037284256,11.507751,0,1
390972000,390972000,1310988,0.0063915867,0.0026631611,0.0,11.50766,0,1
391972000,391972000,1310988,0.4362258,0.108124346,0.2050634,11.5069275,0,1
392972000,392972000,1310988,0.094808534,0.29987195,0.37284255,11.50708,0,1
393972000,393972000,1310988,-0.099069595,0.2743056,0.33981937,11.509644,0,1
394972000,394972000,1310988,-0.2066613,0.14913702,0.25193503,11.511475,0,1
395972000,395972000,1310988,-0.2034655,0.029294772,0.1555286,11.510651,0,1
396972000,396972000,1310988,-0.12516858,-0.010652645,0.0479369,11.5086975,0,1
397972000,397972000,1310988,-0.040480047,-0.012250541,-0.0031957934,11.507568,0,1
398972000,398972000,1310988,-0.0010652645,0.0053263223,-0.01438107,11.507385,0,1
399972000,399972000,1310988,0.01438107,-0.008522116,-0.0127831735,11.507233,0,1
400972000,400972000,1310988,-0.032490566,-0.0005326322,-0.011185277,11.507324,0,1
401972000,401972000,1310988,-0.1965413,0.041545313,-0.05219796,11.50708,0,1
402972000,402972000,1310988,-0.04580637,0.12783173,-0.20240025,11.507477,0,1
403972000,403972000,1310988,0.0777643,0.10759171,-0.21358553,11.508545,0,1
404972000,404972000,1310988,0.13156016,0.056459017,-0.16724652,11.509216,0,1
405972000,405972000,1310988,0.11930962,0.023435818,-0.10066749,11.508881,0,1
406972000,406972000,1310988,0.06870956,-0.0015978967,-0.032490566,11.507935,0,1
407972000,407972000,1310988,0.03568636,-0.014913702,-0.006924219,11.507324,0,1
408972000,408972000,1310988,-0.22264028,0.0058589545,-0.17789917,11.507446,0,1
409972000,409972000,1310988,-0.16138756,0.043675844,-0.18162759,11.507324,0,1
410972000,410972000,1310988,-0.015446335,0.07882957,-0.19973709,11.507385,0,1
411972000,411972000,1310988,0.08149273,0.06498113,-0.17789917,11.507935,0,1
412972000,412972000,1310988,0.099069595,0.029827405,-0.128897,11.508209,0,1
413972000,413972000,1310988,0.0777643,0.0058589545,-0.06338324,11.507965,0,1
414972000,414972000,1310988,0.039947417,0.0010652645,-0.0314253,11.507599,0,1
415972000,415972000,1310988,0.015978966,-0.0005326322,0.002130529,11.507507,0,1
416972000,416972000,1310988,-0.00479369,0.006924219,0.0005326322,11.507477,0,1
417972000,417972000,1310988,0.0005326322,0.004261058,0.00958738,11.507477,0,1
418972000,418972000,1310988,0.0,-0.0005326322,-0.00479369,11.507568,0,1
419972000,419972000,1310988,-0.002130529,-0.0058589545,-0.0037284256,11.507721,0,1
420972000,420972000,1310988,0.051665325,-0.0015978967,0.034621093,11.507599,0,1
421972000,421972000,1310988,-0.015978966,0.00958738,0.03089267,11.507538,0,1
422972000,422972000,1310988,-0.025566347,-0.007989483,0.015978966,11.507477,0,1
423972000,423972000,1310988,-0.012250541,-0.002130529,0.0026631611,11.507355,0,1
424972000,424972000,1310988,-0.004261058,-0.0037284256,-0.0031957934,11.507294,0,1
425972000,425972000,1310988,0.0037284256,-0.007989483,0.0010652645,11.507294,0,1
426972000,426972000,1310988,0.0063915867,0.0010652645,0.0026631611,11.507385,0,1
427972000,427972000,1310988,-0.0031957934,-0.0005326322,0.0037284256,11.50705,0,1
428972000,428972000,1310988,-0.0026631611,0.0026631611,-0.0026631611,11.506866,0,1
429972000,429972000,1310988,0.0026631611,-0.004261058,-0.0031957934,11.506683,0,1
430972000,430972000,1310988,-0.0005326322,-0.0037284256,-0.0015978967,11.506561,0,1
431972000,431972000,1310988,0.004261058,0.0005326322,0.006924219,11.506409,0,1
432972000,432972000,1310988,-0.004261058,0.0037284256,-0.0037284256,11.506287,0,1
433972000,433972000,1310988,0.0026631611,0.002130529,0.002130529,11.506195,0,1
434972000,434972000,1310988,0.0005326322,-0.0063915867,0.002130529,11.506012,0,1
435972000,435972000,1310988,-0.0037284256,0.0015978967,-0.0010652645,11.505829,0,1
436972000,436972000,1310988,-0.00479369,0.0026631611,-0.007989483,11.505829,0,1
437972000,437972000,1310988,0.002130529,0.0053263223,-0.006924219,11.505798,0,1
438972000,438972000,1310988,-0.002130529,-0.0063915867,0.0,11.505615,0,1
439972000,439972000,1310988,-0.0010652645,-0.0031957934,-0.0005326322,11.505646,0,1
440972000,440972000,1310988,0.002130529,-0.0058589545,0.0015978967,11.505768,0,1
441972000,441972000,1310988,-0.0010652645,-0.00479369,0.0010652645,11.50592,0,1
442972000,442972000,1310988,-0.00479369,-0.006924219,0.0,11.506073,0,1
443972000,443972000,1310988,-0.0005326322,0.007989483,-0.0010652645,11.506409,0,1
444972000,444972000,1310988,-0.0005326322,0.004261058,0.0010652645,11.506683,0,1
445972000,445972000,1310988,-0.0026631611,-0.0015978967,0.0053263223,11.506866,0,1
446972000,446972000,1310988,0.002130529,0.0010652645,0.002130529,11.507111,0,1
447972000,447972000,1310988,0.006924219,0.0015978967,-0.0031957934,11.507355,0,1
448972000,448972000,1310988,0.0031957934,0.006924219,0.0058589545,11.507385,0,1
449972000,449972000,1310988,0.0031957934,-0.0031957934,0.002130529,11.507446,0,1
450972000,450972000,1310988,-0.00958738,0.0015978967,0.0031957934,11.507477,0,1
451972000,451972000,1310988,-0.18855181,-0.14274544,-0.18748654,11.50824,0,1
452972000,452972000,1310988,-0.3339604,0.021837922,-0.25086978,11.516815,0,1
453972000,453972000,1310988,-0.19867182,0.19973709,-0.304133,11.529907,0,1
454972000,454972000,1310988,0.18216023,0.13209279,-0.20612867,11.544525,0,1
455972000,455972000,1310988,0.35579833,0.03781689,-0.10013486,11.558746,0,1
456972000,456972000,1310988,0.23009712,0.11984225,0.08841695,11.568848,0,1
457972000,457972000,1310988,0.099069595,0.07350325,0.18642128,11.571381,0,1
458972000,458972000,1310988,0.02609898,0.076166406,0.2130529,11.571655,0,1
459972000,459972000,1310988,-0.0053263223,0.06924219,0.21252026,11.57193,0,1
460972000,460972000,1310988,-0.00479369,0.0628506,0.1965413,11.572205,0,1
461972000,461972000,1310988,-0.0015978967,0.056991648,0.19813919,11.572266,0,1
462972000,462972000,1310988,0.00479369,0.05273059,0.19867182,11.572144,0,1
463972000,463972000,1310988,0.012250541,0.053263225,0.19281286,11.5720825,0,1
464972000,464972000,1310988,0.010652645,0.05273059,0.1933455,11.572144,0,1
465972000,465972000,1310988,0.012250541,0.053263225,0.18908444,11.572144,0,1
466972000,466972000,1310988,0.0053263223,0.061252706,0.18908444,11.572144,0,1
467972000,467972000,1310988,0.017576864,0.053263225,0.18429075,11.572052,0,1
468972000,468972000,1310988,0.012250541,0.05486112,0.18216023,11.571991,0,1
469972000,469972000,1310988,0.010652645,0.04527374,0.18375812,11.571991,0,1
470972000,470972000,1310988,0.01438107,0.05912218,0.18748654,11.5720825,0,1
471972000,471972000,1310988,0.017044231,0.049534798,0.18642128,11.572113,0,1
472972000,472972000,1310988,0.00479369,0.05752428,0.18695392,11.572205,0,1
473972000,473972000,1310988,0.0026631611,0.05539375,0.18748654,11.572266,0,1
474972000,474972000,1310988,0.0058589545,0.049002163,0.18855181,11.572357,0,1
475972000,475972000,1310988,0.007989483,0.05273059,0.19014971,11.572479,0,1
476972000,476972000,1310988,0.00958738,0.048469532,0.18961707,11.572662,0,1
477972000,477972000,1310988,-0.15659387,0.10972224,0.049002163,11.572571,0,1
478972000,478972000,1310988,-0.13635385,-0.029827405,-0.029827405,11.566956,0,1
479972000,479972000,1310988,-0.049002163,-0.048469532,-0.07669904,11.563751,0,1
480972000,480972000,1310988,0.0015978967,-0.017044231,-0.027164243,11.564178,0,1
481972000,481972000,1310988,0.017044231,0.029294772,-0.013315806,11.565857,0,1
482972000,482972000,1310988,0.009054748,-0.007989483,0.006924219,11.566101,0,1
483972000,483972000,1310988,0.00479369,0.0037284256,0.017576864,11.5660095,0,1
484972000,484972000,1310988,-0.006924219,0.0031957934,0.018642128,11.565887,0,1
485972000,485972000,1310988,-0.0031957934,-0.0015978967,0.004261058,11.565857,0,1
486972000,486972000,1310988,-0.00958738,0.0063915867,0.0053263223,11.5651245,0,1
487972000,487972000,1310988,0.00958738,-0.098004326,-0.009054748,11.56369,0,1
488972000,488972000,1310988,0.006924219,-0.02130529,0.0031957934,11.568329,0,1
489972000,489972000,1310988,-0.0031957934,0.015446335,0.0005326322,11.574982,0,1
490972000,490972000,1310988,0.002130529,-0.016511599,-0.0005326322,11.580902,0,1
491972000,491972000,1310988,0.007456851,-0.022903185,-0.0005326322,11.587433,0,1
492972000,492972000,1310988,-0.0031957934,-0.010652645,0.0058589545,11.595367,0,1
493972000,493972000,1310988,-0.0005326322,0.0026631611,0.004261058,11.604218,0,1
494972000,494972000,1310988,0.0010652645,0.0010652645,0.0,11.6128845,0,1
495972000,495972000,1310988,0.0031957934,-0.00479369,-0.004261058,11.621735,0,1
496972000,496972000,1310988,0.0015978967,0.0026631611,0.013848438,11.630829,0,1
497972000,497972000,1310988,0.0015978967,0.0005326322,-0.0053263223,11.639801,0,1
498972000,498972000,1310988,0.0010652645,-0.002130529,0.0,11.649048,0,1
499972000,499972000,1310988,-0.008522116,-0.002130529,-0.0010652645,11.658478,0,1
500972000,500972000,1310988,0.004261058,0.0015978967,-0.0015978967,11.667816,0,1
501972000,501972000,1310988,0.0031957934,-0.0053263223,-0.0005326322,11.677429,0,1
502972000,502972000,1310988,-0.0026631611,-0.002130529,0.0005326322,11.687073,0,1
503972000,503972000,1310988,0.0005326322,-0.0037284256,0.0058589545,11.696533,0,1
504972000,504972000,1310988,0.0031957934,-0.007456851,0.0037284256,11.706268,0,1
505972000,505972000,1310988,0.0,0.0031957934,0.002130529,11.716034,0,1
506972000,506972000,1310988,0.0026631611,-0.0005326322,0.0031957934,11.725616,0,1
507972000,507972000,1310988,0.0053263223,0.0031957934,-0.0005326322,11.735474,0,1
508972000,508972000,1310988,-0.0005326322,-0.0063915867,0.0015978967,11.745361,0,1
509972000,509972000,1310988,0.002130529,-0.004261058,0.0005326322,11.755035,0,1
510972000,510972000,1310988,-0.004261058,-0.006924219,-0.07084008,11.764984,0,1
511972000,511972000,1310988,0.010652645,-0.0005326322,0.017044231,11.775024,0,1
512972000,512972000,1310988,0.007456851,-0.0031957934,-0.0031957934,11.7847595,0,1
513972000,513972000,1310988,0.0015978967,0.0005326322,-0.0010652645,11.794739,0,1
514972000,514972000,1310988,-0.0010652645,0.039414786,0.009054748,11.804321,0,1
515972000,515972000,1310988,0.0026631611,0.023435818,0.0010652645,11.810699,0,1
516972000,516972000,1310988,0.016511599,0.070307456,0.0026631611,11.813202,0,1
517972000,517972000,1310988,-0.0026631611,-0.0010652645,-0.009054748,11.810669,0,1
518972000,518972000,1310988,-0.00958738,-0.009054748,0.00479369,11.808563,0,1
519972000,519972000,1310988,0.0005326322,0.0010652645,0.0063915867,11.807007,0,1
520972000,520972000,1310988,0.0127831735,0.007989483,-0.0058589545,11.805634,0,1
521972000,521972000,1310988,-0.0015978967,-0.0063915867,-0.0015978967,11.80426,0,1
522972000,522972000,1310988,-0.0026631611,-0.07669904,-0.002130529,11.803741,0,1
523972000,523972000,1310988,0.007456851,-0.027696876,0.0,11.806976,0,1
524972000,524972000,1310988,0.00479369,0.10333065,0.0,11.811371,0,1
525972000,525972000,1310988,-0.0010652645,0.015446335,0.0026631611,11.811035,0,1
526972000,526972000,1310988,0.0010652645,-0.010120012,0.002130529,11.809143,0,1
527972000,527972000,1310988,-0.0010652645,-0.08681905,0.0063915867,11.808777,0,1
528972000,528972000,1310988,0.0031957934,-0.021837922,-0.004261058,11.812653,0,1
529972000,529972000,1310988,0.002130529,0.12942964,0.00479369,11.817169,0,1
530972000,530972000,1310988,-0.0031957934,0.01438107,0.0058589545,11.81604,0,1
531972000,531972000,1310988,-0.007456851,-0.02396845,-0.0005326322,11.81366,0,1
532972000,532972000,1310988,0.00479369,-0.11025487,0.0010652645,11.813599,0,1
533972000,533972000,1310988,0.0015978967,0.018642128,0.004261058,11.818481,0,1
534972000,534972000,1310988,0.002130529,0.16298546,-0.0026631611,11.822662,0,1
535972000,535972000,1310988,-0.0010652645,0.006924219,-0.0010652645,11.82019,0,1
536972000,536972000,1310988,0.0,-0.07403588,0.008522116,11.817413,0,1
537972000,537972000,1310988,-0.0010652645,-0.11611383,0.0010652645,11.818665,0,1
538972000,538972000,1310988,0.002130529,0.09054748,0.0015978967,11.825653,0,1
539972000,539972000,1310988,0.0037284256,0.11025487,0.002130529,11.8284,0,1
540972000,540972000,1310988,-0.0053263223,-0.0010652645,0.0010652645,11.824463,0,1
541972000,541972000,1310988,0.0,-0.11345066,0.004261058,11.82135,0,1
542972000,542972000,1310988,0.010652645,-0.11451593,-0.0010652645,11.824036,0,1
543972000,543972000,1310988,0.002130529,0.4000068,0.015446335,11.832336,0,1
544972000,544972000,1310988,0.0026631611,-0.0026631611,0.0015978967,11.832581,0,1
545972000,545972000,1310988,-0.004261058,0.0026631611,0.0037284256,11.832581,0,1
546972000,546972000,1310988,0.0,-0.0005326322,0.00479369,11.832581,0,1
547972000,547972000,1310988,-0.0015978967,0.006924219,-0.0010652645,11.832581,0,1
548972000,548972000,1310988,0.0,-0.0053263223,0.0005326322,11.832581,0,1
549972000,549972000,1310988,-0.004261058,0.0005326322,0.00479369,11.832581,0,1
