timestamp,timestamp_sample,device_id,x,y,z,temperature,error_count,clip_counter[0],clip_counter[1],clip_counter[2],samples
972000,972000,1310988,0.093373865,-0.045489833,-9.842564,11.832275,0,0,0,0,1
1972000,1972000,1310988,0.08619126,-0.031124622,-9.739613,11.832275,0,0,0,0,1
2972000,2972000,1310988,0.10295067,-0.062249243,-9.835381,11.832275,0,0,0,0,1
3972000,3972000,1310988,0.07182605,-0.050278235,-9.773131,11.832275,0,0,0,0,1
4972000,4972000,1310988,0.08379706,-0.045489833,-9.758766,11.832275,0,0,0,0,1
5972000,5972000,1310988,0.1340753,0.019153614,-9.773131,11.832275,0,0,0,0,1
6972000,6972000,1310988,0.10295067,-0.02873042,-9.794679,11.832275,0,0,0,0,1
7972000,7972000,1310988,0.062249243,-0.038307227,-9.825804,11.832275,0,0,0,0,1
8972000,8972000,1310988,0.12449849,-0.08140286,-9.765948,11.832275,0,0,0,0,1
9972000,9972000,1310988,0.05746084,-0.06943185,-9.77792,11.832275,0,0,0,0,1
10972000,10972000,1310988,0.15801731,-0.088585466,-9.7803135,11.832275,0,0,0,0,1
11972000,11972000,1310988,0.062249243,0.0047884034,-9.856929,11.832275,0,0,0,0,1
12972000,12972000,1310988,0.16280572,-0.06464344,-9.809045,11.832275,0,0,0,0,1
13972000,13972000,1310988,0.04309563,-0.02873042,-9.78989,11.832275,0,0,0,0,1
14972000,14972000,1310988,0.12210429,-0.088585466,-9.742006,11.832275,0,0,0,0,1
15972000,15972000,1310988,0.1604115,-0.076614454,-9.751583,11.832275,0,0,0,0,1
16972000,16972000,1310988,0.021547815,-0.045489833,-9.744401,11.832275,0,0,0,0,1
17972000,17972000,1310988,0.1364695,-0.035913024,-9.749189,11.832275,0,0,0,0,1
18972000,18972000,1310988,0.19632454,-0.016759412,-9.782708,11.832275,0,0,0,0,1
19972000,19972000,1310988,0.076614454,-0.062249243,-9.727641,11.832275,0,0,0,0,1
20972000,20972000,1310988,0.038307227,-0.033518825,-9.737218,11.832275,0,0,0,0,1
21972000,21972000,1310988,0.14604631,-0.023942016,-9.7324295,11.832275,0,0,0,0,1
22972000,22972000,1310988,0.076614454,-0.07182605,-9.78989,11.832275,0,0,0,0,1
23972000,23972000,1310988,0.088585466,-0.035913024,-9.689334,11.832275,0,0,0,0,1
24972000,24972000,1310988,0.12210429,0.0,-9.765948,11.832275,0,0,0,0,1
25972000,25972000,1310988,0.16998832,-0.09816227,-9.78989,11.832275,0,0,0,0,1
26972000,26972000,1310988,0.04309563,-0.045489833,-9.794679,11.832275,0,0,0,0,1
27972000,27972000,1310988,0.02633622,0.076614454,-9.703699,11.832275,0,0,0,0,1
28972000,28972000,1310988,0.059855044,-0.05267244,-9.655815,11.832275,0,0,0,0,1
29972000,29972000,1310988,0.06464344,-0.009576807,-9.792285,11.832275,0,0,0,0,1
30972000,30972000,1310988,0.093373865,-0.038307227,-9.7803135,11.832275,0,0,0,0,1
31972000,31972000,1310988,0.055066638,-0.02633622,-9.753978,11.832275,0,0,0,0,1
32972000,32972000,1310988,0.062249243,-0.050278235,-9.696517,11.832275,0,0,0,0,1
33972000,33972000,1310988,0.035913024,0.023942016,-9.751583,11.832275,0,0,0,0,1
34972000,34972000,1310988,0.06464344,-0.055066638,-9.677363,11.832275,0,0,0,0,1
35972000,35972000,1310988,0.08619126,0.0,-9.758766,11.832275,0,0,0,0,1
36972000,36972000,1310988,0.02873042,-0.016759412,-9.734824,11.832275,0,0,0,0,1
37972000,37972000,1310988,0.08619126,-0.062249243,-9.643845,11.832275,0,0,0,0,1
38972000,38972000,1310988,0.08619126,-0.023942016,-9.677363,11.832275,0,0,0,0,1
39972000,39972000,1310988,-0.01436521,-0.033518825,-9.624691,11.832275,0,0,0,0,1
40972000,40972000,1310988,0.06464344,-0.04309563,-9.698911,11.832275,0,0,0,0,1
41972000,41972000,1310988,0.04309563,-0.02873042,-9.694122,11.832275,0,0,0,0,1
42972000,42972000,1310988,-0.009576807,-0.0047884034,-9.720459,11.832275,0,0,0,0,1
43972000,43972000,1310988,0.09816227,-0.06943185,-9.674969,11.832275,0,0,0,0,1
44972000,44972000,1310988,0.033518825,-0.04309563,-9.758766,11.832275,0,0,0,0,1
45972000,45972000,1310988,0.1340753,-0.074220255,-9.722853,11.832275,0,0,0,0,1
46972000,46972000,1310988,-0.016759412,-0.011971008,-9.706094,11.832275,0,0,0,0,1
47972000,47972000,1310988,0.076614454,0.035913024,-9.677363,11.832275,0,0,0,0,1
48972000,48972000,1310988,0.021547815,-0.074220255,-9.689334,11.832275,0,0,0,0,1
49972000,49972000,1310988,-0.023942016,-0.05746084,-9.634268,11.832275,0,0,0,0,1
50972000,50972000,1310988,0.038307227,-0.035913024,-9.691729,11.832275,0,0,0,0,1
51972000,51972000,1310988,0.019153614,0.06464344,-9.696517,11.832275,0,0,0,0,1
52972000,52972000,1310988,0.10295067,-0.02633622,-9.715671,11.832275,0,0,0,0,1
53972000,53972000,1310988,0.0,-0.08379706,-9.706094,11.832275,0,0,0,0,1
54972000,54972000,1310988,0.011971008,-0.06703765,-9.68694,11.832275,0,0,0,0,1
55972000,55972000,1310988,0.038307227,0.019153614,-9.629479,11.832275,0,0,0,0,1
56972000,56972000,1310988,0.031124622,-0.074220255,-9.653421,11.832275,0,0,0,0,1
57972000,57972000,1310988,0.06464344,-0.007182605,-9.629479,11.832275,0,0,0,0,1
58972000,58972000,1310988,0.062249243,0.016759412,-9.65821,11.832275,0,0,0,0,1
59972000,59972000,1310988,-0.023942016,-0.009576807,-9.631873,11.832275,0,0,0,0,1
60972000,60972000,1310988,0.050278235,-0.055066638,-9.725247,11.832275,0,0,0,0,1
61972000,61972000,1310988,-0.07182605,-0.12449849,-9.610326,11.832275,0,0,0,0,1
62972000,62972000,1310988,0.031124622,-0.050278235,-9.581595,11.832275,0,0,0,0,1
63972000,63972000,1310988,0.02633622,-0.10055647,-9.574412,11.832275,0,0,0,0,1
64972000,64972000,1310988,0.1364695,-0.079008654,-9.562442,11.832275,0,0,0,0,1
65972000,65972000,1310988,0.011971008,-0.023942016,-9.701305,11.832275,0,0,0,0,1
66972000,66972000,1310988,0.0047884034,-0.045489833,-9.593566,11.832275,0,0,0,0,1
67972000,67972000,1310988,0.08619126,-0.021547815,-9.67018,11.832275,0,0,0,0,1
68972000,68972000,1310988,0.12210429,-0.11252748,-9.629479,11.832275,0,0,0,0,1
69972000,69972000,1310988,0.05746084,-0.02873042,-9.734824,11.832275,0,0,0,0,1
70972000,70972000,1310988,-0.0023942017,-0.055066638,-9.68694,11.832275,0,0,0,0,1
71972000,71972000,1310988,0.055066638,-0.007182605,-9.636662,11.832275,0,0,0,0,1
72972000,72972000,1310988,0.093373865,-0.055066638,-9.662998,11.832275,0,0,0,0,1
73972000,73972000,1310988,0.01436521,-0.12210429,-9.674969,11.832275,0,0,0,0,1
74972000,74972000,1310988,0.023942016,-0.019153614,-9.694122,11.832275,0,0,0,0,1
75972000,75972000,1310988,-0.009576807,-0.12210429,-9.629479,11.832275,0,0,0,0,1
76972000,76972000,1310988,0.04309563,-0.045489833,-9.715671,11.832275,0,0,0,0,1
77972000,77972000,1310988,0.023942016,-0.033518825,-9.624691,11.832275,0,0,0,0,1
78972000,78972000,1310988,0.009576807,-0.045489833,-9.636662,11.832275,0,0,0,0,1
79972000,79972000,1310988,0.007182605,-0.08379706,-9.713276,11.832275,0,0,0,0,1
80972000,80972000,1310988,0.045489833,-0.009576807,-9.605537,11.832275,0,0,0,0,1
81972000,81972000,1310988,0.0023942017,-0.06703765,-9.689334,11.832275,0,0,0,0,1
82972000,82972000,1310988,-0.055066638,-0.05746084,-9.667787,11.832275,0,0,0,0,1
83972000,83972000,1310988,0.050278235,-0.09816227,-9.674969,11.832275,0,0,0,0,1
84972000,84972000,1310988,0.033518825,-0.06943185,-9.677363,11.832275,0,0,0,0,1
85972000,85972000,1310988,0.05746084,-0.06943185,-9.643845,11.832275,0,0,0,0,1
86972000,86972000,1310988,0.095768064,-0.076614454,-9.691729,11.832275,0,0,0,0,1
87972000,87972000,1310988,0.0047884034,-0.074220255,-9.651027,11.832275,0,0,0,0,1
88972000,88972000,1310988,0.10055647,-0.11731588,-9.7563715,11.832275,0,0,0,0,1
89972000,89972000,1310988,0.0023942017,-0.11731588,-9.639056,11.832275,0,0,0,0,1
90972000,90972000,1310988,0.047884032,-0.1340753,-9.591172,11.832275,0,0,0,0,1
91972000,91972000,1310988,0.016759412,-0.05746084,-9.634268,11.832275,0,0,0,0,1
92972000,92972000,1310988,0.04309563,-0.1412579,-9.725247,11.832275,0,0,0,0,1
93972000,93972000,1310988,0.02873042,-0.12928689,-9.782708,11.832275,0,0,0,0,1
94972000,94972000,1310988,-0.074220255,-0.062249243,-9.753978,11.832275,0,0,0,0,1
95972000,95972000,1310988,-0.007182605,-0.059855044,-9.722853,11.832275,0,0,0,0,1
96972000,96972000,1310988,0.0,-0.08619126,-9.689334,11.832275,0,0,0,0,1
97972000,97972000,1310988,0.05267244,-0.11492168,-9.591172,11.832275,0,0,0,0,1
98972000,98972000,1310988,0.038307227,-0.076614454,-9.624691,11.832275,0,0,0,0,1
99972000,99972000,1310988,0.0,-0.021547815,-9.665392,11.832275,0,0,0,0,1
100972000,100972000,1310988,0.04309563,-0.062249243,-9.624691,11.832275,0,0,0,0,1
101972000,101972000,1310988,-0.019153614,-0.05267244,-9.703699,11.832275,0,0,0,0,1
102972000,102972000,1310988,-0.047884032,-0.009576807,-9.691729,11.832275,0,0,0,0,1
103972000,103972000,1310988,0.0,-0.095768064,-9.689334,11.832275,0,0,0,0,1
104972000,104972000,1310988,-0.059855044,-0.016759412,-9.593566,11.832275,0,0,0,0,1
105972000,105972000,1310988,0.009576807,-0.090979666,-9.67018,11.832275,0,0,0,0,1
106972000,106972000,1310988,-0.016759412,-0.09816227,-9.746795,11.832275,0,0,0,0,1
107972000,107972000,1310988,-0.059855044,-0.011971008,-9.689334,11.832275,0,0,0,0,1
108972000,108972000,1310988,0.021547815,-0.023942016,-9.68694,11.832275,0,0,0,0,1
109972000,109972000,1310988,0.0047884034,-0.04070143,-9.619903,11.832275,0,0,0,0,1
110972000,110972000,1310988,0.045489833,0.007182605,-9.617508,11.832275,0,0,0,0,1
111972000,111972000,1310988,0.06703765,0.009576807,-9.653421,11.832275,0,0,0,0,1
112972000,112972000,1310988,0.0047884034,-0.059855044,-9.598354,11.832275,0,0,0,0,1
113972000,113972000,1310988,-0.05746084,0.04309563,-9.737218,11.832275,0,0,0,0,1
114972000,114972000,1310988,1.7597382,0.05267244,-9.679757,11.832275,0,0,0,0,1
115972000,115972000,1310988,21.557392,0.079008654,-12.200851,11.831818,0,0,0,0,1
116972000,116972000,1310988,3.4572272,-0.016759412,-11.171345,11.807556,0,0,0,0,1
117972000,117972000,1310988,-0.4405331,0.023942016,-8.865729,11.76413,0,0,0,0,1
118972000,118972000,1310988,-1.3192052,-0.021547815,-8.078036,11.725403,0,0,0,0,1
119972000,119972000,1310988,0.51954174,-0.047884032,-8.889671,11.69989,0,0,0,0,1
120972000,120972000,1310988,1.3000516,-0.04070143,-9.323022,11.679779,0,0,0,0,1
121972000,121972000,1310988,1.6639702,-0.11492168,-9.483433,11.661438,0,0,0,0,1
122972000,122972000,1310988,1.9680338,0.02873042,-9.528923,11.643799,0,0,0,0,1
123972000,123972000,1310988,2.0614076,-0.07182605,-9.576807,11.625549,0,0,0,0,1
124972000,124972000,1310988,2.2002714,-0.7254431,-11.69807,11.606781,0,0,0,0,1
125972000,125972000,1310988,2.4468741,0.11492168,-11.575965,11.588409,0,0,0,0,1
126972000,126972000,1310988,2.6144683,0.40701428,-11.293449,11.572174,0,0,0,0,1
127972000,127972000,1310988,1.1851299,-0.23463176,-14.611813,11.567413,0,0,0,0,1
128972000,128972000,1310988,0.7086837,-0.10055647,-17.07784,11.564514,0,0,0,0,1
129972000,129972000,1310988,1.0342951,0.34476504,-15.5359745,11.552582,0,0,0,0,1
130972000,130972000,1310988,1.1971009,0.7302315,-12.727576,11.535431,0,0,0,0,1
131972000,131972000,1310988,0.23702596,0.45489833,-8.248025,11.518066,0,0,0,0,1
132972000,132972000,1310988,-0.076614454,0.40222588,-8.978256,11.510529,0,0,0,0,1
133972000,133972000,1310988,-0.2657564,0.25139117,-9.540894,11.508331,0,0,0,0,1
134972000,134972000,1310988,-0.30645782,-0.06464344,-9.665392,11.507507,0,0,0,0,1
135972000,135972000,1310988,-0.37110126,-0.04070143,-9.593566,11.507233,0,0,0,0,1
136972000,136972000,1310988,-0.47644615,-0.08619126,-9.727641,11.50705,0,0,0,0,1
137972000,137972000,1310988,-0.4237737,0.01436521,-9.52174,11.506775,0,0,0,0,1
138972000,138972000,1310988,-0.5530606,-0.110133275,-9.67018,11.506653,0,0,0,0,1
139972000,139972000,1310988,-0.5530606,0.0047884034,-9.622296,11.506683,0,0,0,0,1
140972000,140972000,1310988,-0.5410896,0.016759412,-9.52174,11.506592,0,0,0,0,1
141972000,141972000,1310988,-0.45010993,0.019153614,-9.667787,11.506561,0,0,0,0,1
142972000,142972000,1310988,-0.5554548,-0.031124622,-9.617508,11.506439,0,0,0,0,1
143972000,143972000,1310988,-0.46447513,0.011971008,-9.519346,11.506256,0,0,0,0,1
144972000,144972000,1310988,-0.45968673,0.021547815,-9.598354,11.506348,0,0,0,0,1
145972000,145972000,1310988,-0.6536171,-0.7038953,-11.046846,11.5061035,0,0,0,0,1
146972000,146972000,1310988,-0.545878,-0.17717093,-13.6254015,11.507111,0,0,0,0,1
147972000,147972000,1310988,-0.8690952,-0.06464344,-15.380352,11.511078,0,0,0,0,1
148972000,148972000,1310988,-0.80684596,0.021547815,-14.798561,11.514893,0,0,0,0,1
149972000,149972000,1310988,-0.59855044,0.7302315,-12.210428,11.5173645,0,0,0,0,1
150972000,150972000,1310988,-0.5506664,0.7182605,-10.69011,11.5159,0,0,0,0,1
151972000,151972000,1310988,-0.17717093,0.39743748,-9.167398,11.510284,0,0,0,0,1
152972000,152972000,1310988,-0.31124622,0.02873042,-9.516952,11.507721,0,0,0,0,1
153972000,153972000,1310988,-0.3854665,-0.05267244,-9.854534,11.507751,0,0,0,0,1
154972000,154972000,1310988,-0.51235914,-0.08140286,-9.840169,11.507843,0,0,0,0,1
155972000,155972000,1310988,-0.47884035,-0.093373865,-9.660604,11.507477,0,0,0,0,1
156972000,156972000,1310988,-0.50038815,-0.093373865,-9.581595,11.506989,0,0,0,0,1
157972000,157972000,1310988,-0.46447513,0.0047884034,-9.545682,11.506897,0,0,0,0,1
158972000,158972000,1310988,-0.51954174,0.093373865,-9.706094,11.507141,0,0,0,0,1
159972000,159972000,1310988,-0.5482722,0.06943185,-9.763555,11.507263,0,0,0,0,1
160972000,160972000,1310988,-0.5315128,0.062249243,-9.682152,11.507324,0,0,0,0,1
161972000,161972000,1310988,-0.5746084,0.095768064,-9.665392,11.507507,0,0,0,0,1
162972000,162972000,1310988,-0.62728083,0.11971009,-9.734824,11.50766,0,0,0,0,1
163972000,163972000,1310988,-0.50278234,0.045489833,-9.76116,11.507935,0,0,0,0,1
164972000,164972000,1310988,-0.5770026,0.035913024,-9.746795,11.508209,0,0,0,0,1
165972000,165972000,1310988,-0.5506664,-0.011971008,-9.653421,11.508179,0,0,0,0,1
166972000,166972000,1310988,-0.5793968,0.06703765,-9.682152,11.508148,0,0,0,0,1
167972000,167972000,1310988,-0.521936,-0.0023942017,-9.672575,11.508209,0,0,0,0,1
168972000,168972000,1310988,-0.49799395,0.062249243,-9.751583,11.508362,0,0,0,0,1
169972000,169972000,1310988,-0.5315128,0.10534488,-9.679757,11.508392,0,0,0,0,1
170972000,170972000,1310988,-0.533907,0.1388637,-9.782708,11.508392,0,0,0,0,1
171972000,171972000,1310988,-0.533907,-0.021547815,-9.677363,11.508301,0,0,0,0,1
172972000,172972000,1310988,-0.45489833,-0.023942016,-9.5385,11.508209,0,0,0,0,1
173972000,173972000,1310988,-1.2521675,0.8523358,-10.907983,11.508148,0,0,0,0,1
174972000,174972000,1310988,-0.48123455,0.58897364,-12.94066,11.50708,0,0,0,0,1
175972000,175972000,1310988,-0.7278373,0.15322891,-14.870387,11.509277,0,0,0,0,1
176972000,176972000,1310988,-0.7757214,-0.095768064,-14.882358,11.512482,0,0,0,0,1
177972000,177972000,1310988,-0.59615624,-0.5626374,-12.8832,11.515045,0,0,0,0,1
178972000,178972000,1310988,-0.6488287,-0.7613561,-10.84334,11.514984,0,0,0,0,1
179972000,179972000,1310988,-0.29448682,-0.40701428,-9.454702,11.51062,0,0,0,0,1
180972000,180972000,1310988,-0.22744916,-0.090979666,-9.363723,11.507233,0,0,0,0,1
181972000,181972000,1310988,-0.45489833,0.1388637,-9.907207,11.506836,0,0,0,0,1
182972000,182972000,1310988,-0.44532153,0.15322891,-9.900024,11.507019,0,0,0,0,1
183972000,183972000,1310988,-0.47165772,0.12449849,-9.679757,11.506592,0,0,0,0,1
184972000,184972000,1310988,-0.46686932,0.011971008,-9.61272,11.506195,0,0,0,0,1
185972000,185972000,1310988,-0.4381389,0.02633622,-9.646238,11.506134,0,0,0,0,1
186972000,186972000,1310988,-0.5746084,0.10055647,-9.674969,11.506256,0,0,0,0,1
187972000,187972000,1310988,-0.61291564,0.007182605,-9.667787,11.506348,0,0,0,0,1
188972000,188972000,1310988,-0.4357447,0.045489833,-9.591172,11.506561,0,0,0,0,1
189972000,189972000,1310988,-0.56982,0.035913024,-9.7563715,11.506805,0,0,0,0,1
190972000,190972000,1310988,-0.5243302,0.095768064,-9.533711,11.5069275,0,0,0,0,1
191972000,191972000,1310988,-0.48362875,-0.011971008,-9.770737,11.506989,0,0,0,0,1
192972000,192972000,1310988,-0.46686932,-0.031124622,-9.67018,11.506989,0,0,0,0,1
193972000,193972000,1310988,-0.5602432,-0.007182605,-9.588778,11.50705,0,0,0,0,1
194972000,194972000,1310988,-0.59855044,-0.059855044,-9.703699,11.50708,0,0,0,0,1
195972000,195972000,1310988,-0.5291186,-0.055066638,-9.720459,11.5069275,0,0,0,0,1
196972000,196972000,1310988,-1.292869,-1.0175357,-10.955867,11.506683,0,0,0,0,1
197972000,197972000,1310988,-0.47644615,-0.48123455,-13.10586,11.506897,0,0,0,0,1
198972000,198972000,1310988,-0.56982,0.076614454,-13.855246,11.510376,0,0,0,0,1
199972000,199972000,1310988,-0.62488663,0.40222588,-12.677298,11.51416,0,0,0,0,1
200972000,200972000,1310988,-0.58897364,0.6991069,-10.848128,11.514374,0,0,0,0,1
201972000,201972000,1310988,-0.45010993,0.4309563,-9.634268,11.510681,0,0,0,0,1
202972000,202972000,1310988,-0.33997664,0.062249243,-9.267955,11.507355,0,0,0,0,1
203972000,203972000,1310988,-0.4381389,0.019153614,-9.593566,11.5065,0,0,0,0,1
204972000,204972000,1310988,-0.4405331,0.0023942017,-9.651027,11.5065,0,0,0,0,1
205972000,205972000,1310988,-0.5363012,-0.10055647,-9.672575,11.506531,0,0,0,0,1
206972000,206972000,1310988,-0.59615624,-0.009576807,-9.775525,11.506531,0,0,0,0,1
207972000,207972000,1310988,-0.47405192,-0.0047884034,-9.49301,11.5065,0,0,0,0,1
208972000,208972000,1310988,-0.49559975,0.33997664,-9.916783,11.506622,0,0,0,0,1
209972000,209972000,1310988,-0.49320555,0.016759412,-9.787497,11.506348,0,0,0,0,1
210972000,210972000,1310988,-0.44771573,-0.055066638,-9.919178,11.506256,0,0,0,0,1
211972000,211972000,1310988,-0.50517654,-0.17717093,-9.80665,11.506256,0,0,0,0,1
212972000,212972000,1310988,-0.5386954,-0.20829555,-9.677363,11.506165,0,0,0,0,1
213972000,213972000,1310988,-0.48602295,-0.12928689,-9.639056,11.506073,0,0,0,0,1
214972000,214972000,1310988,-0.49799395,0.0023942017,-9.660604,11.5060425,0,0,0,0,1
215972000,215972000,1310988,-0.47884035,-0.009576807,-9.55047,11.505798,0,0,0,0,1
216972000,216972000,1310988,-0.34476504,-0.021547815,-9.593566,11.505646,0,0,0,0,1
217972000,217972000,1310988,-0.521936,-0.062249243,-9.639056,11.505737,0,0,0,0,1
218972000,218972000,1310988,-0.46926352,0.007182605,-9.562442,11.505676,0,0,0,0,1
219972000,219972000,1310988,-0.50517654,-0.10295067,-9.576807,11.505798,0,0,0,0,1
220972000,220972000,1310988,-0.49320555,-0.02873042,-9.595961,11.505829,0,0,0,0,1
221972000,221972000,1310988,-0.46447513,0.21308395,-9.758766,11.505585,0,0,0,0,1
222972000,222972000,1310988,-0.45010993,-0.016759412,-10.06283,11.505341,0,0,0,0,1
223972000,223972000,1310988,-0.49559975,-0.1604115,-9.976639,11.505585,0,0,0,0,1
224972000,224972000,1310988,-0.59855044,-0.18674773,-9.945514,11.5060425,0,0,0,0,1
225972000,225972000,1310988,-0.49799395,-0.24420857,-9.811439,11.506165,0,0,0,0,1
226972000,226972000,1310988,-0.6464345,-0.11971009,-9.579201,11.506134,0,0,0,0,1
227972000,227972000,1310988,-0.50038815,-0.11971009,-9.662998,11.506165,0,0,0,0,1
228972000,228972000,1310988,-0.49559975,-0.11971009,-9.629479,11.506409,0,0,0,0,1
229972000,229972000,1310988,-0.6703765,-0.06703765,-9.7084875,11.506714,0,0,0,0,1
230972000,230972000,1310988,-0.5363012,0.007182605,-9.655815,11.506897,0,0,0,0,1
231972000,231972000,1310988,-0.5626374,-0.04309563,-9.816227,11.507172,0,0,0,0,1
232972000,232972000,1310988,-0.5674258,0.01436521,-9.64145,11.507385,0,0,0,0,1
233972000,233972000,1310988,-0.5482722,0.14844051,-9.856929,11.507538,0,0,0,0,1
234972000,234972000,1310988,-0.533907,0.01436521,-9.856929,11.50769,0,0,0,0,1
235972000,235972000,1310988,-0.5793968,-0.033518825,-9.902418,11.5078125,0,0,0,0,1
236972000,236972000,1310988,-0.533907,-0.18914193,-9.710882,11.508057,0,0,0,0,1
237972000,237972000,1310988,-0.641646,-0.12449849,-9.847352,11.508362,0,0,0,0,1
238972000,238972000,1310988,-0.6344634,-0.06943185,-9.77792,11.508514,0,0,0,0,1
239972000,239972000,1310988,-0.7086837,-0.059855044,-9.629479,11.508667,0,0,0,0,1
240972000,240972000,1310988,-1.2904748,-0.9816227,-11.145009,11.5086975,0,0,0,0,1
241972000,241972000,1310988,-0.51475334,-0.4333505,-13.496115,11.509338,0,0,0,0,1
242972000,242972000,1310988,-0.830788,-0.17717093,-15.437813,11.513153,0,0,0,0,1
243972000,243972000,1310988,-0.8595184,-0.0047884034,-15.71554,11.516937,0,0,0,0,1
244972000,244972000,1310988,-0.58897364,0.5243302,-13.340492,11.519318,0,0,0,0,1
245972000,245972000,1310988,-0.7781156,0.7517793,-11.159374,11.518921,0,0,0,0,1
246972000,246972000,1310988,-0.24420857,0.48123455,-9.40203,11.513031,0,0,0,0,1
247972000,247972000,1310988,-0.24899697,0.15083471,-9.473856,11.508789,0,0,0,0,1
248972000,248972000,1310988,-0.40462008,-0.1604115,-9.92636,11.508179,0,0,0,0,1
249972000,249972000,1310988,-0.5386954,-0.18674773,-10.0269165,11.50827,0,0,0,0,1
250972000,250972000,1310988,-0.59136784,-0.09816227,-9.7803135,11.507874,0,0,0,0,1
251972000,251972000,1310988,-0.5363012,-0.045489833,-9.524135,11.507446,0,0,0,0,1
252972000,252972000,1310988,-0.5674258,-0.050278235,-9.689334,11.507263,0,0,0,0,1
253972000,253972000,1310988,-0.47644615,0.023942016,-9.739613,11.507172,0,0,0,0,1
254972000,254972000,1310988,-0.6991069,-0.016759412,-9.785102,11.50705,0,0,0,0,1
255972000,255972000,1310988,-0.5674258,0.1412579,-9.691729,11.506775,0,0,0,0,1
256972000,256972000,1310988,-0.5315128,0.0047884034,-9.581595,11.506622,0,0,0,0,1
257972000,257972000,1310988,-0.533907,-0.05746084,-9.543288,11.506439,0,0,0,0,1
258972000,258972000,1310988,-0.51235914,-0.05267244,-9.67018,11.506592,0,0,0,0,1
259972000,259972000,1310988,-0.62249243,-0.02873042,-9.7563715,11.506805,0,0,0,0,1
260972000,260972000,1310988,-0.581791,-0.031124622,-9.624691,11.506897,0,0,0,0,1
261972000,261972000,1310988,-0.5674258,-0.047884032,-9.706094,11.507172,0,0,0,0,1
262972000,262972000,1310988,-0.5482722,-0.011971008,-9.727641,11.507568,0,0,0,0,1
263972000,263972000,1310988,-0.58897364,-0.02873042,-9.727641,11.507935,0,0,0,0,1
264972000,264972000,1310988,-0.5530606,-0.01436521,-9.775525,11.50827,0,0,0,0,1
265972000,265972000,1310988,-1.2425907,0.7422025,-10.517728,11.508606,0,0,0,0,1
266972000,266972000,1310988,-0.45250413,0.5434838,-12.196063,11.507782,0,0,0,0,1
267972000,267972000,1310988,-0.545878,0.011971008,-12.856863,11.509766,0,0,0,0,1
268972000,268972000,1310988,-0.7685388,-0.33279404,-12.25113,11.513153,0,0,0,0,1
269972000,269972000,1310988,-0.6584055,-0.5554548,-10.884041,11.514221,0,0,0,0,1
270972000,270972000,1310988,-0.5410896,-0.45250413,-9.648633,11.512268,0,0,0,0,1
271972000,271972000,1310988,-0.40940848,-0.12210429,-9.49301,11.510254,0,0,0,0,1
272972000,272972000,1310988,-0.50278234,-0.04309563,-9.799467,11.509552,0,0,0,0,1
273972000,273972000,1310988,-0.545878,-0.04309563,-9.78989,11.509491,0,0,0,0,1
274972000,274972000,1310988,-0.5746084,-0.011971008,-9.871294,11.509491,0,0,0,0,1
275972000,275972000,1310988,-0.51954174,-0.088585466,-9.792285,11.509552,0,0,0,0,1
276972000,276972000,1310988,-0.5770026,-0.059855044,-9.67018,11.5095825,0,0,0,0,1
277972000,277972000,1310988,-0.58897364,0.01436521,-9.825804,11.509705,0,0,0,0,1
278972000,278972000,1310988,-0.60573304,-0.1412579,-9.698911,11.509796,0,0,0,0,1
279972000,279972000,1310988,-0.5650316,0.055066638,-9.722853,11.509918,0,0,0,0,1
280972000,280972000,1310988,-0.56982,-0.29927522,-9.950302,11.510193,0,0,0,0,1
281972000,281972000,1310988,-0.5770026,-0.15322891,-9.969456,11.5104065,0,0,0,0,1
282972000,282972000,1310988,-0.5530606,-0.01436521,-10.089166,11.510834,0,0,0,0,1
283972000,283972000,1310988,-0.61770403,0.074220255,-9.92636,11.511047,0,0,0,0,1
284972000,284972000,1310988,-0.5770026,0.08619126,-9.945514,11.510956,0,0,0,0,1
285972000,285972000,1310988,-0.47644615,0.0023942017,-9.809045,11.510681,0,0,0,0,1
286972000,286972000,1310988,-0.5793968,-0.011971008,-9.775525,11.510345,0,0,0,0,1
287972000,287972000,1310988,-0.59615624,0.011971008,-9.816227,11.51004,0,0,0,0,1
288972000,288972000,1310988,-0.6440403,-0.11492168,-9.742006,11.509827,0,0,0,0,1
289972000,289972000,1310988,-0.5793968,-0.033518825,-9.730036,11.509552,0,0,0,0,1
290972000,290972000,1310988,-0.5482722,-0.29209262,-9.797073,11.509155,0,0,0,0,1
291972000,291972000,1310988,-0.5770026,-0.22026655,-9.983821,11.508972,0,0,0,0,1
292972000,292972000,1310988,-0.59855044,-0.031124622,-10.156203,11.509155,0,0,0,0,1
293972000,293972000,1310988,-0.581791,0.15083471,-9.892841,11.509277,0,0,0,0,1
294972000,294972000,1310988,-0.5386954,0.08619126,-9.85214,11.509094,0,0,0,0,1
295972000,295972000,1310988,-0.48602295,0.0023942017,-9.775525,11.508514,0,0,0,0,1
296972000,296972000,1310988,-0.47884035,-0.016759412,-9.720459,11.508118,0,0,0,0,1
297972000,297972000,1310988,-0.5650316,-0.016759412,-9.78989,11.507782,0,0,0,0,1
298972000,298972000,1310988,-0.78529817,-1.0414777,-10.915166,11.507294,0,0,0,0,1
299972000,299972000,1310988,-0.5386954,-0.2705448,-11.815386,11.507568,0,0,0,0,1
300972000,300972000,1310988,-0.6584055,0.088585466,-12.107478,11.5104065,0,0,0,0,1
301972000,301972000,1310988,-0.7086837,0.4429273,-11.305421,11.512634,0,0,0,0,1
302972000,302972000,1310988,-0.48362875,0.46447513,-10.307038,11.511993,0,0,0,0,1
303972000,303972000,1310988,-0.50278234,0.22026655,-9.703699,11.509644,0,0,0,0,1
304972000,304972000,1310988,-0.49799395,0.031124622,-9.581595,11.507965,0,0,0,0,1
305972000,305972000,1310988,-0.45729253,0.05267244,-9.718064,11.507446,0,0,0,0,1
306972000,306972000,1310988,-0.5602432,-0.090979666,-9.892841,11.507202,0,0,0,0,1
307972000,307972000,1310988,-0.5386954,-0.11731588,-9.653421,11.506805,0,0,0,0,1
308972000,308972000,1310988,-0.5363012,-0.02633622,-9.68694,11.506653,0,0,0,0,1
309972000,309972000,1310988,-0.46447513,-0.06464344,-9.775525,11.506592,0,0,0,0,1
310972000,310972000,1310988,-0.62009823,-0.1436521,-9.734824,11.506561,0,0,0,0,1
311972000,311972000,1310988,-0.60573304,-0.01436521,-9.775525,11.506348,0,0,0,0,1
312972000,312972000,1310988,-0.60094464,-0.016759412,-9.737218,11.506409,0,0,0,0,1
313972000,313972000,1310988,-0.5267244,-0.062249243,-9.718064,11.506348,0,0,0,0,1
314972000,314972000,1310988,-0.35194764,0.50517654,-11.437101,11.5052185,0,0,0,0,1
315972000,315972000,1310988,-0.5267244,0.023942016,-13.924677,11.505737,0,0,0,0,1
316972000,316972000,1310988,-0.6823475,-0.16759412,-14.089877,11.508759,0,0,0,0,1
317972000,317972000,1310988,-0.7445967,-0.6512229,-12.555194,11.511963,0,0,0,0,1
318972000,318972000,1310988,-0.61530983,-0.8810662,-10.7116585,11.51236,0,0,0,0,1
319972000,319972000,1310988,-0.39983168,-0.39983168,-9.476251,11.509033,0,0,0,0,1
320972000,320972000,1310988,-0.3184288,-0.17717093,-9.380483,11.506561,0,0,0,0,1
321972000,321972000,1310988,-0.5267244,-0.047884032,-9.859323,11.506256,0,0,0,0,1
322972000,322972000,1310988,-0.5410896,0.038307227,-9.746795,11.506378,0,0,0,0,1
323972000,323972000,1310988,-0.5267244,0.0,-9.758766,11.506317,0,0,0,0,1
324972000,324972000,1310988,-0.5602432,-0.011971008,-9.890448,11.506073,0,0,0,0,1
325972000,325972000,1310988,-0.49081135,-0.059855044,-9.651027,11.505707,0,0,0,0,1
326972000,326972000,1310988,-0.49320555,-0.009576807,-9.744401,11.50589,0,0,0,0,1
327972000,327972000,1310988,-0.60094464,-0.031124622,-9.775525,11.505981,0,0,0,0,1
328972000,328972000,1310988,-0.5770026,-0.05746084,-9.816227,11.506073,0,0,0,0,1
329972000,329972000,1310988,-0.5386954,-0.02873042,-9.734824,11.506165,0,0,0,0,1
330972000,330972000,1310988,-0.5770026,-0.04070143,-9.742006,11.506195,0,0,0,0,1
331972000,331972000,1310988,-0.5770026,-0.04070143,-9.720459,11.506195,0,0,0,0,1
332972000,332972000,1310988,-0.5793968,-0.06703765,-9.715671,11.506348,0,0,0,0,1
333972000,333972000,1310988,-0.6655881,-0.088585466,-9.835381,11.506622,0,0,0,0,1
334972000,334972000,1310988,-0.581791,-0.02633622,-9.734824,11.506683,0,0,0,0,1
335972000,335972000,1310988,-0.557849,-0.107739076,-9.856929,11.5069275,0,0,0,0,1
336972000,336972000,1310988,-0.40462008,-0.045489833,-9.696517,11.50705,0,0,0,0,1
337972000,337972000,1310988,-0.37349546,0.44532153,-11.159374,11.506256,0,0,0,0,1
338972000,338972000,1310988,-0.49081135,-0.090979666,-12.152967,11.50708,0,0,0,0,1
339972000,339972000,1310988,-0.6679823,-0.37588966,-11.882423,11.509735,0,0,0,0,1
340972000,340972000,1310988,-0.62728083,-0.6440403,-10.848128,11.511017,0,0,0,0,1
341972000,341972000,1310988,-0.46926352,-0.39025488,-9.921572,11.509827,0,0,0,0,1
342972000,342972000,1310988,-0.51954174,-0.17717093,-9.624691,11.508026,0,0,0,0,1
343972000,343972000,1310988,-0.46686932,-0.15801731,-9.653421,11.507324,0,0,0,0,1
344972000,344972000,1310988,-0.47405192,-0.02873042,-9.7084875,11.507477,0,0,0,0,1
345972000,345972000,1310988,-0.60333884,-0.11492168,-9.82341,11.507935,0,0,0,0,1
346972000,346972000,1310988,-0.58657944,-0.06464344,-9.861717,11.50827,0,0,0,0,1
347972000,347972000,1310988,-0.581791,0.06943185,-9.832987,11.508606,0,0,0,0,1
348972000,348972000,1310988,-0.6775591,-0.095768064,-9.864111,11.508972,0,0,0,0,1
349972000,349972000,1310988,-0.51714754,-0.08379706,-9.813833,11.509155,0,0,0,0,1
350972000,350972000,1310988,-0.48841715,-0.050278235,-9.801862,11.509216,0,0,0,0,1
351972000,351972000,1310988,-0.49081135,0.0023942017,-9.799467,11.509186,0,0,0,0,1
352972000,352972000,1310988,-0.56982,-0.05267244,-9.907207,11.509216,0,0,0,0,1
353972000,353972000,1310988,-0.46926352,-0.05746084,-9.76116,11.509094,0,0,0,0,1
354972000,354972000,1310988,-0.46208093,-0.047884032,-9.763555,11.509003,0,0,0,0,1
355972000,355972000,1310988,-0.48841715,-0.090979666,-9.830592,11.508942,0,0,0,0,1
356972000,356972000,1310988,-0.5434838,-0.033518825,-9.844957,11.509064,0,0,0,0,1
357972000,357972000,1310988,-0.4429273,0.021547815,-9.691729,11.509064,0,0,0,0,1
358972000,358972000,1310988,-0.59615624,-0.021547815,-9.866506,11.509125,0,0,0,0,1
359972000,359972000,1310988,-0.5410896,-0.033518825,-9.849746,11.509094,0,0,0,0,1
360972000,360972000,1310988,-0.48362875,0.009576807,-9.797073,11.509033,0,0,0,0,1
361972000,361972000,1310988,-0.47405192,-0.016759412,-9.725247,11.509003,0,0,0,0,1
362972000,362972000,1310988,-0.45968673,-0.09816227,-9.770737,11.508972,0,0,0,0,1
363972000,363972000,1310988,-0.48123455,0.0047884034,-9.77792,11.508911,0,0,0,0,1
364972000,364972000,1310988,-0.4357447,-0.06703765,-9.811439,11.50885,0,0,0,0,1
365972000,365972000,1310988,-0.32321724,-0.6751649,-11.566388,11.508087,0,0,0,0,1
366972000,366972000,1310988,-0.5482722,-0.16998832,-14.178462,11.5095215,0,0,0,0,1
367972000,367972000,1310988,-0.6847417,-0.016759412,-14.966155,11.513062,0,0,0,0,1
368972000,368972000,1310988,-0.6512229,0.4237737,-13.292608,11.516022,0,0,0,0,1
369972000,369972000,1310988,-0.521936,0.830788,-11.212047,11.516083,0,0,0,0,1
370972000,370972000,1310988,-0.35673606,0.4381389,-9.6845455,11.511505,0,0,0,0,1
371972000,371972000,1310988,-0.20829555,0.1364695,-9.3661175,11.507355,0,0,0,0,1
372972000,372972000,1310988,-0.37110126,-0.093373865,-9.794679,11.50647,0,0,0,0,1
373972000,373972000,1310988,-0.51475334,-0.12928689,-9.902418,11.506622,0,0,0,0,1
374972000,374972000,1310988,-0.50517654,-0.1604115,-9.842564,11.50647,0,0,0,0,1
375972000,375972000,1310988,-0.47644615,-0.038307227,-9.873688,11.506378,0,0,0,0,1
376972000,376972000,1310988,-0.58657944,-0.17238252,-9.727641,11.506378,0,0,0,0,1
377972000,377972000,1310988,-0.49081135,-0.074220255,-9.832987,11.506439,0,0,0,0,1
378972000,378972000,1310988,-0.4381389,-0.04070143,-9.801862,11.506531,0,0,0,0,1
379972000,379972000,1310988,-0.48362875,0.035913024,-9.809045,11.506531,0,0,0,0,1
380972000,380972000,1310988,-0.5793968,0.11252748,-9.856929,11.506683,0,0,0,0,1
381972000,381972000,1310988,-0.49320555,0.46208093,-9.97185,11.506683,0,0,0,0,1
382972000,382972000,1310988,-0.50038815,0.1436521,-10.196905,11.506683,0,0,0,0,1
383972000,383972000,1310988,-0.5243302,-0.04309563,-10.189722,11.506897,0,0,0,0,1
384972000,384972000,1310988,-0.49559975,-0.260968,-10.0508585,11.507416,0,0,0,0,1
385972000,385972000,1310988,-0.5267244,-0.19632454,-9.931149,11.507568,0,0,0,0,1
386972000,386972000,1310988,-0.557849,-0.10295067,-9.866506,11.507477,0,0,0,0,1
387972000,387972000,1310988,-0.50278234,-0.088585466,-9.765948,11.507446,0,0,0,0,1
388972000,388972000,1310988,-0.47165772,0.062249243,-9.847352,11.507629,0,0,0,0,1
389972000,389972000,1310988,-0.5243302,-0.062249243,-9.868899,11.507751,0,0,0,0,1
390972000,390972000,1310988,-0.5530606,0.016759412,-9.835381,11.50766,0,0,0,0,1
391972000,391972000,1310988,-0.38307226,0.7685388,-11.020511,11.5069275,0,0,0,0,1
392972000,392972000,1310988,-0.35434186,0.055066638,-12.064383,11.50708,0,0,0,0,1
393972000,393972000,1310988,-0.6536171,-0.30406362,-12.112267,11.509644,0,0,0,0,1
394972000,394972000,1310988,-0.6584055,-0.44532153,-11.171345,11.511475,0,0,0,0,1
395972000,395972000,1310988,-0.44532153,-0.36631286,-10.251971,11.510651,0,0,0,0,1
396972000,396972000,1310988,-0.521936,-0.25378537,-9.713276,11.5086975,0,0,0,0,1
397972000,397972000,1310988,-0.47644615,-0.110133275,-9.744401,11.507568,0,0,0,0,1
398972000,398972000,1310988,-0.59376204,-0.007182605,-9.880871,11.507385,0,0,0,0,1
399972000,399972000,1310988,-0.533907,0.011971008,-9.67018,11.507233,0,0,0,0,1
400972000,400972000,1310988,-0.51475334,0.033518825,-9.797073,11.507324,0,0,0,0,1
401972000,401972000,1310988,-0.4189853,0.019153614,-9.945514,11.50708,0,0,0,0,1
402972000,402972000,1310988,-0.5363012,0.047884032,-10.699687,11.507477,0,0,0,0,1
403972000,403972000,1310988,-0.5315128,0.20590134,-10.704475,11.508545,0,0,0,0,1
404972000,404972000,1310988,-0.49799395,0.39504328,-10.216059,11.509216,0,0,0,0,1
405972000,405972000,1310988,-0.5674258,0.31364042,-10.067618,11.508881,0,0,0,0,1
406972000,406972000,1310988,-0.49081135,0.14844051,-9.770737,11.507935,0,0,0,0,1
407972000,407972000,1310988,-0.49081135,0.033518825,-9.646238,11.507324,0,0,0,0,1
408972000,408972000,1310988,-0.4309563,-0.34715924,-10.055647,11.507446,0,0,0,0,1
409972000,409972000,1310988,-0.61052144,-0.2873042,-10.204087,11.507324,0,0,0,0,1
410972000,410972000,1310988,-0.45010993,-0.02633622,-10.3453455,11.507385,0,0,0,0,1
411972000,411972000,1310988,-0.50517654,0.16998832,-10.309433,11.507935,0,0,0,0,1
412972000,412972000,1310988,-0.5434838,0.11731588,-10.146626,11.508209,0,0,0,0,1
413972000,413972000,1310988,-0.5482722,0.11252748,-9.859323,11.507965,0,0,0,0,1
414972000,414972000,1310988,-0.545878,0.1340753,-9.828198,11.507599,0,0,0,0,1
415972000,415972000,1310988,-0.5363012,0.12210429,-9.868899,11.507507,0,0,0,0,1
416972000,416972000,1310988,-0.5506664,-0.045489833,-9.911995,11.507477,0,0,0,0,1
417972000,417972000,1310988,-0.48841715,-0.0023942017,-9.907207,11.507477,0,0,0,0,1
418972000,418972000,1310988,-0.46686932,0.045489833,-9.653421,11.507568,0,0,0,0,1
419972000,419972000,1310988,-0.46208093,-0.021547815,-9.837775,11.507721,0,0,0,0,1
420972000,420972000,1310988,-0.39504328,0.24181437,-9.938332,11.507599,0,0,0,0,1
421972000,421972000,1310988,-0.5410896,-0.007182605,-9.861717,11.507538,0,0,0,0,1
422972000,422972000,1310988,-0.37828386,-0.093373865,-9.77792,11.507477,0,0,0,0,1
423972000,423972000,1310988,-0.5363012,-0.05746084,-9.758766,11.507355,0,0,0,0,1
424972000,424972000,1310988,-0.45968673,0.0023942017,-9.835381,11.507294,0,0,0,0,1
425972000,425972000,1310988,-0.4381389,-0.074220255,-9.679757,11.507294,0,0,0,0,1
426972000,426972000,1310988,-0.59615624,0.02873042,-9.900024,11.507385,0,0,0,0,1
427972000,427972000,1310988,-0.5363012,0.02873042,-9.691729,11.50705,0,0,0,0,1
428972000,428972000,1310988,-0.46208093,-0.0047884034,-9.768343,11.506866,0,0,0,0,1
429972000,429972000,1310988,-0.4381389,-0.009576807,-9.725247,11.506683,0,0,0,0,1
430972000,430972000,1310988,-0.49559975,0.009576807,-9.792285,11.506561,0,0,0,0,1
431972000,431972000,1310988,-0.581791,-0.007182605,-9.794679,11.506409,0,0,0,0,1
432972000,432972000,1310988,-0.39743748,0.0023942017,-9.830592,11.506287,0,0,0,0,1
433972000,433972000,1310988,-0.49081135,-0.035913024,-9.7084875,11.506195,0,0,0,0,1
434972000,434972000,1310988,-0.44771573,-0.07182605,-9.763555,11.506012,0,0,0,0,1
435972000,435972000,1310988,-0.5267244,-0.07182605,-9.765948,11.505829,0,0,0,0,1
436972000,436972000,1310988,-0.521936,0.023942016,-9.744401,11.505829,0,0,0,0,1
437972000,437972000,1310988,-0.5554548,-0.0023942017,-9.835381,11.505798,0,0,0,0,1
438972000,438972000,1310988,-0.5434838,-0.031124622,-9.7084875,11.505615,0,0,0,0,1
439972000,439972000,1310988,-0.533907,-0.076614454,-9.813833,11.505646,0,0,0,0,1
440972000,440972000,1310988,-0.45010993,-0.021547815,-9.734824,11.505768,0,0,0,0,1
441972000,441972000,1310988,-0.47644615,-0.10055647,-9.782708,11.50592,0,0,0,0,1
442972000,442972000,1310988,-0.45250413,-0.110133275,-9.718064,11.506073,0,0,0,0,1
443972000,443972000,1310988,-0.59855044,0.05746084,-9.782708,11.506409,0,0,0,0,1
444972000,444972000,1310988,-0.50517654,-0.08379706,-9.742006,11.506683,0,0,0,0,1
445972000,445972000,1310988,-0.5410896,-0.095768064,-9.809045,11.506866,0,0,0,0,1
446972000,446972000,1310988,-0.50517654,-0.009576807,-9.7803135,11.507111,0,0,0,0,1
447972000,447972000,1310988,-0.58897364,-0.047884032,-9.909601,11.507355,0,0,0,0,1
448972000,448972000,1310988,-0.5243302,0.0023942017,-9.794679,11.507385,0,0,0,0,1
449972000,449972000,1310988,-0.45489833,0.0,-9.660604,11.507446,0,0,0,0,1
450972000,450972000,1310988,-0.48602295,-0.021547815,-9.792285,11.507477,0,0,0,0,1
451972000,451972000,1310988,-1.2617443,-0.24660277,-7.785944,11.50824,0,0,0,0,1
452972000,452972000,1310988,-1.6950948,-0.50996494,-9.773131,11.516815,0,0,0,0,1
453972000,453972000,1310988,-1.8555063,-0.33279404,-11.166556,11.529907,0,0,0,0,1
454972000,454972000,1310988,-1.8555063,0.39264908,-10.577583,11.544525,0,0,0,0,1
455972000,455972000,1310988,-1.8363527,0.6488287,-10.620679,11.558746,0,0,0,0,1
456972000,456972000,1310988,-1.0462662,0.44771573,-11.602302,11.568848,0,0,0,0,1
457972000,457972000,1310988,-0.545878,0.15322891,-10.58716,11.571381,0,0,0,0,1
458972000,458972000,1310988,-0.50996494,0.02633622,-10.386047,11.571655,0,0,0,0,1
459972000,459972000,1310988,-0.5267244,-0.031124622,-10.283096,11.57193,0,0,0,0,1
460972000,460972000,1310988,-0.50517654,-0.06943185,-10.2974615,11.572205,0,0,0,0,1
461972000,461972000,1310988,-0.5506664,-0.02873042,-10.180145,11.572266,0,0,0,0,1
462972000,462972000,1310988,-0.5674258,-0.093373865,-10.125079,11.572144,0,0,0,0,1
463972000,463972000,1310988,-0.4333505,-0.038307227,-10.206482,11.5720825,0,0,0,0,1
464972000,464972000,1310988,-0.56982,-0.02873042,-10.177752,11.572144,0,0,0,0,1
465972000,465972000,1310988,-0.4333505,-0.05267244,-10.146626,11.572144,0,0,0,0,1
466972000,466972000,1310988,-0.47165772,-0.076614454,-10.216059,11.572144,0,0,0,0,1
467972000,467972000,1310988,-0.5291186,-0.047884032,-10.15381,11.572052,0,0,0,0,1
468972000,468972000,1310988,-0.44532153,-0.10055647,-10.21127,11.571991,0,0,0,0,1
469972000,469972000,1310988,-0.50757074,-0.038307227,-10.089166,11.571991,0,0,0,0,1
470972000,470972000,1310988,-0.5746084,-0.047884032,-10.261548,11.5720825,0,0,0,0,1
471972000,471972000,1310988,-0.48841715,0.06943185,-10.16578,11.572113,0,0,0,0,1
472972000,472972000,1310988,-0.51954174,-0.0047884034,-10.180145,11.572205,0,0,0,0,1
473972000,473972000,1310988,-0.44771573,-0.079008654,-10.199299,11.572266,0,0,0,0,1
474972000,474972000,1310988,-0.44771573,-0.031124622,-10.196905,11.572357,0,0,0,0,1
475972000,475972000,1310988,-0.46926352,-0.09816227,-10.220847,11.572479,0,0,0,0,1
476972000,476972000,1310988,-0.4237737,-0.033518825,-10.125079,11.572662,0,0,0,0,1
477972000,477972000,1310988,-0.6512229,-0.36391866,-12.052411,11.572571,0,0,0,0,1
478972000,478972000,1310988,-1.8626889,0.05267244,-9.165004,11.566956,0,0,0,0,1
479972000,479972000,1310988,-1.2808979,0.021547815,-9.184157,11.563751,0,0,0,0,1
480972000,480972000,1310988,-0.8882488,-0.059855044,-9.548077,11.564178,0,0,0,0,1
481972000,481972000,1310988,-0.8331822,-0.1604115,-10.101137,11.565857,0,0,0,0,1
482972000,482972000,1310988,-0.7422025,-0.079008654,-9.689334,11.566101,0,0,0,0,1
483972000,483972000,1310988,-0.6943185,-0.035913024,-9.689334,11.5660095,0,0,0,0,1
484972000,484972000,1310988,-0.6344634,0.0047884034,-9.710882,11.565887,0,0,0,0,1
485972000,485972000,1310988,-0.61052144,-0.05746084,-9.811439,11.565857,0,0,0,0,1
486972000,486972000,1310988,-0.8690952,-0.016759412,-9.969456,11.5651245,0,0,0,0,1
487972000,487972000,1310988,-1.0534488,0.01436521,-8.623915,11.56369,0,0,0,0,1
488972000,488972000,1310988,-1.1228806,-0.17717093,-9.466674,11.568329,0,0,0,0,1
489972000,489972000,1310988,-1.283292,-0.023942016,-9.801862,11.574982,0,0,0,0,1
490972000,490972000,1310988,-1.3910311,-0.090979666,-9.490616,11.580902,0,0,0,0,1
491972000,491972000,1310988,-1.4030021,-0.1340753,-9.600749,11.587433,0,0,0,0,1
492972000,492972000,1310988,-1.5394717,0.007182605,-9.516952,11.595367,0,0,0,0,1
493972000,493972000,1310988,-1.6639702,-0.07182605,-9.603143,11.604218,0,0,0,0,1
494972000,494972000,1310988,-1.673547,-0.045489833,-9.679757,11.6128845,0,0,0,0,1
495972000,495972000,1310988,-1.7070658,-0.06464344,-9.615114,11.621735,0,0,0,0,1
496972000,496972000,1310988,-1.6400281,-0.062249243,-9.540894,11.630829,0,0,0,0,1
497972000,497972000,1310988,-1.721431,-0.02873042,-9.634268,11.639801,0,0,0,0,1
498972000,498972000,1310988,-1.7836803,-0.062249243,-9.516952,11.649048,0,0,0,0,1
499972000,499972000,1310988,-1.7717092,-0.059855044,-9.622296,11.658478,0,0,0,0,1
500972000,500972000,1310988,-1.8004397,-0.11971009,-9.526528,11.667816,0,0,0,0,1
501972000,501972000,1310988,-1.8148049,-0.110133275,-9.615114,11.677429,0,0,0,0,1
502972000,502972000,1310988,-1.7884687,-0.04309563,-9.672575,11.687073,0,0,0,0,1
503972000,503972000,1310988,-1.757344,-0.08379706,-9.593566,11.696533,0,0,0,0,1
504972000,504972000,1310988,-1.7525556,-0.074220255,-9.667787,11.706268,0,0,0,0,1
505972000,505972000,1310988,-1.8339585,-0.14604631,-9.636662,11.716034,0,0,0,0,1
506972000,506972000,1310988,-1.7836803,-0.05746084,-9.591172,11.725616,0,0,0,0,1
507972000,507972000,1310988,-1.8890251,-0.076614454,-9.572019,11.735474,0,0,0,0,1
508972000,508972000,1310988,-1.769315,-0.12689269,-9.615114,11.745361,0,0,0,0,1
509972000,509972000,1310988,-1.8028339,-0.088585466,-9.713276,11.755035,0,0,0,0,1
510972000,510972000,1310988,-1.8483237,-0.08619126,-9.5385,11.764984,0,0,0,0,1
511972000,511972000,1310988,-1.8842367,-0.12210429,-9.56723,11.775024,0,0,0,0,1
512972000,512972000,1310988,-1.8770541,-0.10295067,-9.610326,11.7847595,0,0,0,0,1
513972000,513972000,1310988,-1.9009962,-0.1340753,-9.622296,11.794739,0,0,0,0,1
514972000,514972000,1310988,-1.7645266,-0.12210429,-10.144233,11.804321,0,0,0,0,1
515972000,515972000,1310988,-1.6807296,-0.10534488,-10.0029745,11.810699,0,0,0,0,1
516972000,516972000,1310988,-1.4508862,-0.22266077,-10.508151,11.813202,0,0,0,0,1
517972000,517972000,1310988,-1.0462662,-0.17956513,-9.636662,11.810669,0,0,0,0,1
518972000,518972000,1310988,-0.8523358,-0.16519992,-9.773131,11.808563,0,0,0,0,1
519972000,519972000,1310988,-0.6751649,-0.18435353,-9.794679,11.807007,0,0,0,0,1
520972000,520972000,1310988,-0.58897364,-0.18674773,-9.801862,11.805634,0,0,0,0,1
521972000,521972000,1310988,-0.7302315,-0.21787235,-9.749189,11.80426,0,0,0,0,1
522972000,522972000,1310988,-0.62728083,-0.21787235,-9.107543,11.803741,0,0,0,0,1
523972000,523972000,1310988,-0.61052144,-0.1340753,-9.555259,11.806976,0,0,0,0,1
524972000,524972000,1310988,-0.6823475,-0.15083471,-10.675745,11.811371,0,0,0,0,1
525972000,525972000,1310988,-0.59615624,-0.15083471,-9.938332,11.811035,0,0,0,0,1
526972000,526972000,1310988,-0.7134721,-0.1604115,-9.665392,11.809143,0,0,0,0,1
527972000,527972000,1310988,-0.6584055,-0.1340753,-8.980651,11.808777,0,0,0,0,1
528972000,528972000,1310988,-0.61052144,-0.1436521,-9.631873,11.812653,0,0,0,0,1
529972000,529972000,1310988,-0.7517793,-0.11252748,-10.960655,11.817169,0,0,0,0,1
530972000,530972000,1310988,-0.6512229,-0.12689269,-9.856929,11.81604,0,0,0,0,1
531972000,531972000,1310988,-0.6895301,-0.12689269,-9.528923,11.81366,0,0,0,0,1
532972000,532972000,1310988,-0.58897364,-0.10055647,-8.848969,11.813599,0,0,0,0,1
533972000,533972000,1310988,-0.59615624,-0.093373865,-9.85214,11.818481,0,0,0,0,1
534972000,534972000,1310988,-0.7757214,-0.007182605,-11.252748,11.822662,0,0,0,0,1
535972000,535972000,1310988,-0.581791,-0.076614454,-9.782708,11.82019,0,0,0,0,1
536972000,536972000,1310988,-0.6560113,-0.11252748,-9.248801,11.817413,0,0,0,0,1
537972000,537972000,1310988,-0.5434838,-0.16280572,-8.7292595,11.818665,0,0,0,0,1
538972000,538972000,1310988,-0.7278373,-0.090979666,-10.496181,11.825653,0,0,0,0,1
539972000,539972000,1310988,-0.7015011,-0.01436521,-10.81461,11.8284,0,0,0,0,1
540972000,540972000,1310988,-0.6368576,-0.095768064,-9.574412,11.824463,0,0,0,0,1
541972000,541972000,1310988,-0.7110779,-0.11252748,-8.825027,11.82135,0,0,0,0,1
542972000,542972000,1310988,-0.49081135,-0.047884032,-8.738836,11.824036,0,0,0,0,1
543972000,543972000,1310988,-38.15639,15.629349,0.05267244,11.832336,0,0,0,0,1
544972000,544972000,1310988,-6.8162923,-3.1723173,-9.758766,11.832581,0,0,0,0,1
545972000,545972000,1310988,0.15801731,0.031124622,-9.744401,11.832581,0,0,0,0,1
546972000,546972000,1310988,0.090979666,-0.06943185,-9.7803135,11.832581,0,0,0,0,1
547972000,547972000,1310988,0.04070143,-0.079008654,-9.727641,11.832581,0,0,0,0,1
548972000,548972000,1310988,0.05746084,-0.06703765,-9.78989,11.832581,0,0,0,0,1
549972000,549972000,1310988,0.050278235,-0.050278235,-9.706094,11.832581,0,0,0,0,1
