timestamp,timestamp_sample,device_id,x,y,z,temperature,error_count,is_external
960000,960000,197388,0.0067459983,-0.22364843,0.43076143,11.832275,0,0
1956000,1956000,197388,0.004847509,-0.22638297,0.4253405,11.832275,0,0
2968000,2968000,197388,0.00516028,-0.21219331,0.42878956,11.832275,0,0
3960000,3960000,197388,0.003912989,-0.21603833,0.43262947,11.832275,0,0
4956000,4956000,197388,0.0041580456,-0.21699506,0.42448348,11.832275,0,0
5964000,5964000,197388,0.0060095894,-0.22045812,0.42764843,11.832275,0,0
6964000,6964000,197388,0.00054245174,-0.21271579,0.43032908,11.832275,0,0
7960000,7960000,197388,0.011662791,-0.22248442,0.4306591,11.832275,0,0
8968000,8968000,197388,0.005695444,-0.22213821,0.42912996,11.832275,0,0
9960000,9960000,197388,0.0077129845,-0.21227676,0.42294893,11.832275,0,0
10960000,10960000,197388,0.011212212,-0.21626008,0.4258237,11.832275,0,0
11952000,11952000,197388,0.0025256053,-0.21251824,0.42303994,11.832275,0,0
12960000,12960000,197388,0.007759216,-0.217177,0.4350097,11.832275,0,0
13956000,13956000,197388,0.00952169,-0.22010154,0.42826155,11.832275,0,0
14952000,14952000,197388,0.00200003,-0.21748519,0.42769945,11.832275,0,0
15960000,15960000,197388,0.0038528077,-0.21536069,0.42450303,11.832275,0,0
16956000,16956000,197388,0.0065572704,-0.22070615,0.4266672,11.832275,0,0
17968000,17968000,197388,0.003007958,-0.2158747,0.42785263,11.832275,0,0
18964000,18964000,197388,0.002472599,-0.21685137,0.42093807,11.832275,0,0
19956000,19956000,197388,0.0043168874,-0.21369605,0.4225041,11.832275,0,0
20964000,20964000,197388,0.0046320613,-0.21932608,0.42999795,11.832275,0,0
21960000,21960000,197388,0.0062780282,-0.21438248,0.4316063,11.832275,0,0
22956000,22956000,197388,0.003312187,-0.21371083,0.42881298,11.832275,0,0
23964000,23964000,197388,0.00613237,-0.21113414,0.42805815,11.832275,0,0
24960000,24960000,197388,0.01004893,-0.21579994,0.43325698,11.832275,0,0
25956000,25956000,197388,0.004085182,-0.21121919,0.42503834,11.832275,0,0
26968000,26968000,197388,0.010756313,-0.21513496,0.43130863,11.832275,0,0
27960000,27960000,197388,0.00029540848,-0.20990103,0.42011502,11.832275,0,0
28956000,28956000,197388,0.008356283,-0.22041678,0.4345804,11.832275,0,0
29968000,29968000,197388,0.009590255,-0.21396102,0.4271461,11.832275,0,0
30964000,30964000,197388,0.0099561345,-0.2130205,0.4271272,11.832275,0,0
31956000,31956000,197388,0.00627271,-0.21937776,0.43431783,11.832275,0,0
32964000,32964000,197388,0.007926658,-0.21309523,0.42867368,11.832275,0,0
33964000,33964000,197388,0.0040447316,-0.21986714,0.42659953,11.832275,0,0
34960000,34960000,197388,0.0059613455,-0.2184108,0.4240052,11.832275,0,0
35956000,35956000,197388,0.0041430397,-0.21139207,0.4260212,11.832275,0,0
36960000,36960000,197388,0.0069189356,-0.21689442,0.42881405,11.832275,0,0
37956000,37956000,197388,0.007714832,-0.21650876,0.42941308,11.832275,0,0
38968000,38968000,197388,0.0102925,-0.20993501,0.43196085,11.832275,0,0
39960000,39960000,197388,-0.0016436608,-0.2085701,0.43090445,11.832275,0,0
40960000,40960000,197388,0.011542722,-0.2190714,0.4294449,11.832275,0,0
41968000,41968000,197388,0.0040651583,-0.21465684,0.42542073,11.832275,0,0
42960000,42960000,197388,0.00076977356,-0.2179882,0.4313216,11.832275,0,0
43956000,43956000,197388,0.00720408,-0.21558613,0.43107116,11.832275,0,0
44964000,44964000,197388,0.0077343443,-0.22457963,0.4301176,11.832275,0,0
45964000,45964000,197388,0.0075795306,-0.21734832,0.4254009,11.832275,0,0
46956000,46956000,197388,0.007438014,-0.22267208,0.43367898,11.832275,0,0
47964000,47964000,197388,0.002753628,-0.21177913,0.4238626,11.832275,0,0
48964000,48964000,197388,0.0069444235,-0.21373041,0.42737052,11.832275,0,0
49960000,49960000,197388,0.007380688,-0.21854082,0.4275727,11.832275,0,0
50968000,50968000,197388,-0.0014359416,-0.22272626,0.43197274,11.832275,0,0
51960000,51960000,197388,0.004753117,-0.21621522,0.42904687,11.832275,0,0
52956000,52956000,197388,0.0024065943,-0.21571903,0.43258518,11.832275,0,0
53964000,53964000,197388,0.005681743,-0.21628284,0.42699358,11.832275,0,0
54960000,54960000,197388,0.0060268445,-0.21477458,0.42899236,11.832275,0,0
55956000,55956000,197388,0.0065848823,-0.21918355,0.42194685,11.832275,0,0
56952000,56952000,197388,0.003263174,-0.21085863,0.4287101,11.832275,0,0
57964000,57964000,197388,0.0057574073,-0.21428834,0.4290573,11.832275,0,0
58960000,58960000,197388,0.01126476,-0.22070213,0.43186918,11.832275,0,0
59968000,59968000,197388,0.0070799636,-0.21192984,0.42482546,11.832275,0,0
60964000,60964000,197388,0.0054832897,-0.2119641,0.4369076,11.832275,0,0
61956000,61956000,197388,-0.0019122331,-0.21014385,0.42502564,11.832275,0,0
62956000,62956000,197388,0.010926497,-0.22290842,0.43075332,11.832275,0,0
63960000,63960000,197388,0.0033835554,-0.2135492,0.42520767,11.832275,0,0
64960000,64960000,197388,0.0046962025,-0.21501634,0.42962724,11.832275,0,0
65968000,65968000,197388,0.008599441,-0.21956809,0.43042853,11.832275,0,0
66960000,66960000,197388,0.010623427,-0.2216165,0.43029928,11.832275,0,0
67956000,67956000,197388,0.005628558,-0.21642716,0.4276675,11.832275,0,0
68956000,68956000,197388,0.0045468486,-0.21529911,0.42967603,11.832275,0,0
69960000,69960000,197388,0.008437019,-0.21219555,0.42974746,11.832275,0,0
70960000,70960000,197388,0.007861712,-0.21750905,0.42904985,11.832275,0,0
71964000,71964000,197388,0.0041826656,-0.21821617,0.43170935,11.832275,0,0
72960000,72960000,197388,0.009304871,-0.22017832,0.43006107,11.832275,0,0
73956000,73956000,197388,0.0073616677,-0.21095808,0.42128935,11.832275,0,0
74964000,74964000,197388,0.006846634,-0.2141928,0.42645514,11.832275,0,0
75960000,75960000,197388,0.0064235744,-0.21670839,0.42494255,11.832275,0,0
76956000,76956000,197388,0.0034685663,-0.2158544,0.4250711,11.832275,0,0
77956000,77956000,197388,0.008773098,-0.2143573,0.43083838,11.832275,0,0
78960000,78960000,197388,0.0033238223,-0.21343228,0.42968622,11.832275,0,0
79956000,79956000,197388,0.0060619256,-0.21591932,0.43188924,11.832275,0,0
80968000,80968000,197388,0.0072405315,-0.21601592,0.4326893,11.832275,0,0
81960000,81960000,197388,-0.0009931453,-0.21775903,0.43214977,11.832275,0,0
82960000,82960000,197388,0.0068499832,-0.21615492,0.4288186,11.832275,0,0
83964000,83964000,197388,0.0031540685,-0.21781547,0.42797607,11.832275,0,0
84960000,84960000,197388,0.010872589,-0.21044748,0.43088046,11.832275,0,0
85956000,85956000,197388,0.0039755073,-0.21612547,0.4324274,11.832275,0,0
86956000,86956000,197388,0.00402856,-0.22126354,0.42613015,11.832275,0,0
87960000,87960000,197388,0.011614805,-0.21330367,0.4293636,11.832275,0,0
88960000,88960000,197388,0.009395105,-0.20990218,0.42772767,11.832275,0,0
89956000,89956000,197388,0.008968067,-0.21445519,0.429844,11.832275,0,0
90960000,90960000,197388,0.0072838226,-0.22169934,0.43116653,11.832275,0,0
91956000,91956000,197388,-0.0006306038,-0.21642037,0.42528355,11.832275,0,0
92952000,92952000,197388,0.013481262,-0.21200427,0.43389317,11.832275,0,0
93960000,93960000,197388,0.002496507,-0.21639581,0.42656508,11.832275,0,0
94960000,94960000,197388,0.0044631804,-0.21454081,0.4260172,11.832275,0,0
95956000,95956000,197388,0.0073189363,-0.21886162,0.4267351,11.832275,0,0
96960000,96960000,197388,0.008883048,-0.22139308,0.42773423,11.832275,0,0
97960000,97960000,197388,0.007712764,-0.21042636,0.42868105,11.832275,0,0
98968000,98968000,197388,0.011329046,-0.21470645,0.42660847,11.832275,0,0
99960000,99960000,197388,-0.0011970076,-0.21678534,0.43487853,11.832275,0,0
100960000,100960000,197388,0.004362847,-0.21121697,0.43161288,11.832275,0,0
101964000,101964000,197388,0.001116563,-0.21593952,0.42764038,11.832275,0,0
102960000,102960000,197388,0.0060549593,-0.21465822,0.42948896,11.832275,0,0
103956000,103956000,197388,0.010950885,-0.213803,0.42764452,11.832275,0,0
104964000,104964000,197388,0.006754142,-0.21408153,0.43193358,11.832275,0,0
105960000,105960000,197388,0.007765944,-0.21214336,0.42917332,11.832275,0,0
106960000,106960000,197388,0.0063133584,-0.21146572,0.42544767,11.832275,0,0
107968000,107968000,197388,0.0076413183,-0.21645305,0.42314604,11.832275,0,0
108960000,108960000,197388,0.006511914,-0.21466887,0.43374246,11.832275,0,0
109960000,109960000,197388,0.0099931955,-0.21790238,0.43272904,11.832275,0,0
110964000,110964000,197388,0.010852973,-0.22260042,0.42755368,11.832275,0,0
111964000,111964000,197388,0.006664177,-0.21643996,0.4297396,11.832275,0,0
112960000,112960000,197388,0.007309774,-0.2158288,0.42991453,11.832275,0,0
113964000,113964000,197388,0.010230652,-0.21464838,0.43021765,11.832275,0,0
114964000,114964000,197388,0.0064995894,-0.21703137,0.4281192,11.832275,0,0
115956000,115956000,197388,0.017863126,-0.20744304,0.43341956,11.831879,0,0
116952000,116952000,197388,-0.11032904,-0.2101298,0.41402942,11.807556,0,0
117964000,117964000,197388,-0.1195103,-0.24376008,0.4020271,11.76413,0,0
118960000,118960000,197388,-0.10280579,-0.23296684,0.40735054,11.726166,0,0
119956000,119956000,197388,-0.083259754,-0.22809948,0.4245084,11.69989,0,0
120960000,120960000,197388,-0.07125337,-0.22095373,0.43069103,11.680206,0,0
121960000,121960000,197388,-0.07449056,-0.21689032,0.42416042,11.661865,0,0
122968000,122968000,197388,-0.07197446,-0.21830082,0.42146286,11.643799,0,0
123960000,123960000,197388,-0.075741574,-0.21854274,0.41778004,11.625977,0,0
124960000,124960000,197388,0.024875753,-0.3833196,0.28465757,11.607239,0,0
125964000,125964000,197388,0.079028696,-0.39193308,0.2748155,11.588409,0,0
126960000,126960000,197388,0.12150626,-0.29463005,0.35834554,11.572174,0,0
127960000,127960000,197388,0.18184532,-0.18625775,0.40607393,11.567413,0,0
128964000,128964000,197388,-0.032296356,-0.1738411,0.4451915,11.564514,0,0
129964000,129964000,197388,-0.23058614,-0.20607992,0.3629157,11.552582,0,0
130960000,130960000,197388,-0.29535052,-0.22867028,0.28623864,11.535858,0,0
131952000,131952000,197388,-0.25197545,-0.21083514,0.34456092,11.518066,0,0
132960000,132960000,197388,-0.20314422,-0.11714928,0.4238502,11.510529,0,0
133960000,133960000,197388,-0.17786343,-0.048340864,0.44239226,11.508362,0,0
134952000,134952000,197388,-0.1889302,-0.012596069,0.4345472,11.507507,0,0
135964000,135964000,197388,-0.18757248,-0.017518897,0.4434622,11.507233,0,0
136960000,136960000,197388,-0.1905711,-0.017779756,0.43762398,11.50708,0,0
137952000,137952000,197388,-0.19404678,-0.024300782,0.44571635,11.506775,0,0
138960000,138960000,197388,-0.1910748,-0.0341463,0.43650922,11.506653,0,0
139956000,139956000,197388,-0.18791233,-0.032427672,0.43613198,11.506653,0,0
140964000,140964000,197388,-0.19454035,-0.04134002,0.4372669,11.506592,0,0
141960000,141960000,197388,-0.194383,-0.039848235,0.44072142,11.506561,0,0
142956000,142956000,197388,-0.19624361,-0.032894984,0.43028393,11.506439,0,0
143952000,143952000,197388,-0.19139118,-0.03215735,0.4360918,11.506256,0,0
144960000,144960000,197388,-0.18694296,-0.038097993,0.44300348,11.506348,0,0
145956000,145956000,197388,-0.16473301,-0.28598338,0.34485918,11.506134,0,0
146968000,146968000,197388,-0.08967723,-0.44038332,0.18048218,11.507111,0,0
147960000,147960000,197388,0.06023668,-0.4676047,0.09934311,11.511078,0,0
148956000,148956000,197388,0.18932591,-0.40676332,0.17541711,11.514801,0,0
149968000,149968000,197388,0.20828207,-0.2783147,0.3402494,11.5173645,0,0
150960000,150960000,197388,0.20226339,-0.045645878,0.44042814,11.5159,0,0
151956000,151956000,197388,0.21639308,0.101029135,0.42586315,11.5104065,0,0
152956000,152956000,197388,0.23717028,0.1171596,0.39875385,11.507721,0,0
153960000,153960000,197388,0.24043283,0.07788847,0.404906,11.507751,0,0
154956000,154956000,197388,0.23178259,0.017754225,0.42611095,11.507874,0,0
155956000,155956000,197388,0.2263056,-0.02942356,0.41969106,11.507477,0,0
156960000,156960000,197388,0.22525914,-0.056932487,0.41811782,11.507019,0,0
157956000,157956000,197388,0.22275978,-0.06278716,0.41660726,11.506897,0,0
158956000,158956000,197388,0.23288967,-0.064402394,0.41867825,11.507141,0,0
159964000,159964000,197388,0.2325655,-0.06443942,0.4181307,11.507263,0,0
160960000,160960000,197388,0.2281686,-0.057445906,0.41222593,11.507324,0,0
161956000,161956000,197388,0.22510818,-0.055080447,0.41343063,11.507507,0,0
162960000,162960000,197388,0.23271017,-0.05929028,0.41436037,11.50766,0,0
163956000,163956000,197388,0.22623286,-0.053508233,0.41413516,11.507935,0,0
164956000,164956000,197388,0.23221089,-0.060152207,0.41636822,11.508209,0,0
165960000,165960000,197388,0.23311849,-0.061662555,0.418093,11.508179,0,0
166960000,166960000,197388,0.22777332,-0.061115373,0.41866168,11.508148,0,0
167956000,167956000,197388,0.22837202,-0.056884218,0.41820422,11.508209,0,0
168964000,168964000,197388,0.2283359,-0.05118749,0.414941,11.508362,0,0
169960000,169960000,197388,0.23201756,-0.06351668,0.42532995,11.508392,0,0
170968000,170968000,197388,0.22908337,-0.053526264,0.41326228,11.508392,0,0
171960000,171960000,197388,0.23496178,-0.056088053,0.42536688,11.508301,0,0
172956000,172956000,197388,0.2290581,-0.055847436,0.4174396,11.508209,0,0
173964000,173964000,197388,0.22984637,0.0034178398,0.42405882,11.508148,0,0
174960000,174960000,197388,0.19988918,0.15978552,0.4083291,11.50708,0,0
175956000,175956000,197388,0.06727989,0.18358156,0.44733092,11.509216,0,0
176964000,176964000,197388,-0.102137886,0.22552116,0.41754207,11.512482,0,0
177960000,177960000,197388,-0.1993903,0.2456443,0.3635636,11.515045,0,0
178956000,178956000,197388,-0.22692347,0.15608421,0.40358177,11.515045,0,0
179964000,179964000,197388,-0.21148409,0.012145202,0.42772374,11.51062,0,0
180960000,180960000,197388,-0.19746143,-0.059032217,0.4317604,11.507233,0,0
181956000,181956000,197388,-0.1941818,-0.10112168,0.42166406,11.506836,0,0
182964000,182964000,197388,-0.1999087,-0.10131008,0.4286858,11.507019,0,0
183964000,183964000,197388,-0.20286399,-0.07962799,0.43153176,11.506592,0,0
184960000,184960000,197388,-0.18881199,-0.06783229,0.4349575,11.506195,0,0
185964000,185964000,197388,-0.18961091,-0.055197652,0.4339834,11.506134,0,0
186960000,186960000,197388,-0.18772198,-0.04427444,0.44593754,11.506256,0,0
187956000,187956000,197388,-0.18786354,-0.04905675,0.43770224,11.506348,0,0
188964000,188964000,197388,-0.18561722,-0.05125927,0.4410547,11.506561,0,0
189960000,189960000,197388,-0.19176146,-0.04561423,0.44380978,11.506805,0,0
190956000,190956000,197388,-0.18527906,-0.048508424,0.43987966,11.5069275,0,0
191964000,191964000,197388,-0.18817881,-0.053721815,0.4364561,11.506989,0,0
192964000,192964000,197388,-0.18661402,-0.05846596,0.4432041,11.506989,0,0
193956000,193956000,197388,-0.18782227,-0.055707354,0.4397465,11.50705,0,0
194964000,194964000,197388,-0.18444507,-0.057275485,0.43991196,11.50708,0,0
195960000,195960000,197388,-0.18044715,-0.053247076,0.43381637,11.5069275,0,0
196956000,196956000,197388,-0.16736063,-0.22003281,0.3952816,11.506714,0,0
197964000,197964000,197388,-0.11279895,-0.42273208,0.21462107,11.506897,0,0
198960000,198960000,197388,0.008837751,-0.46009144,0.14576408,11.510376,0,0
199960000,199960000,197388,0.109354414,-0.41378096,0.21331318,11.514099,0,0
200956000,200956000,197388,0.15508007,-0.3001782,0.34044346,11.514374,0,0
201964000,201964000,197388,0.17575333,-0.1612115,0.42443034,11.510681,0,0
202956000,202956000,197388,0.19156466,-0.08878132,0.42941988,11.507416,0,0
203964000,203964000,197388,0.19349557,-0.08100006,0.43329155,11.5065,0,0
204960000,204960000,197388,0.19250423,-0.092966065,0.4302797,11.5065,0,0
205956000,205956000,197388,0.18633471,-0.12506968,0.42784095,11.506531,0,0
206952000,206952000,197388,0.18542013,-0.1438889,0.42707425,11.506531,0,0
207960000,207960000,197388,0.17706822,-0.15090749,0.41811112,11.5065,0,0
208960000,208960000,197388,0.17256242,-0.11924679,0.43623605,11.506622,0,0
209952000,209952000,197388,0.1567442,-0.08898279,0.45221114,11.506348,0,0
210960000,210960000,197388,0.1350105,-0.088460095,0.4559331,11.506256,0,0
211960000,211960000,197388,0.1162958,-0.12503141,0.45832896,11.506256,0,0
212964000,212964000,197388,0.08502632,-0.16071907,0.44446304,11.506165,0,0
213964000,213964000,197388,0.08179101,-0.18755493,0.43598753,11.506073,0,0
214960000,214960000,197388,0.065566085,-0.20399763,0.43119285,11.506073,0,0
215952000,215952000,197388,0.07355157,-0.20767333,0.4203247,11.505798,0,0
216964000,216964000,197388,0.084405005,-0.21027638,0.42756683,11.505646,0,0
217956000,217956000,197388,0.074504524,-0.20988487,0.42098042,11.505737,0,0
218952000,218952000,197388,0.07976398,-0.20581664,0.42434442,11.505676,0,0
219960000,219960000,197388,0.07758309,-0.20703144,0.42785227,11.505798,0,0
220956000,220956000,197388,0.07698303,-0.20586513,0.42794046,11.505829,0,0
221964000,221964000,197388,0.05517319,-0.12809996,0.46646404,11.505585,0,0
222960000,222960000,197388,0.015458372,-0.07114161,0.47555554,11.505341,0,0
223956000,223956000,197388,-0.025291495,-0.07248918,0.47236887,11.505554,0,0
224968000,224968000,197388,-0.060849726,-0.103180945,0.46681634,11.5060425,0,0
225960000,225960000,197388,-0.08566597,-0.1406871,0.44913772,11.506165,0,0
226956000,226956000,197388,-0.10164885,-0.1641088,0.44462222,11.506134,0,0
227964000,227964000,197388,-0.09476505,-0.17827994,0.43743473,11.506165,0,0
228964000,228964000,197388,-0.09418783,-0.18880348,0.43388405,11.506409,0,0
229956000,229956000,197388,-0.095528014,-0.1880271,0.42895877,11.506714,0,0
230964000,230964000,197388,-0.09166161,-0.18464611,0.4415474,11.506897,0,0
231960000,231960000,197388,-0.09103095,-0.18706715,0.4392672,11.507172,0,0
232960000,232960000,197388,-0.09266007,-0.17818066,0.4340876,11.507385,0,0
233952000,233952000,197388,-0.09956447,-0.11386562,0.45848054,11.507538,0,0
234960000,234960000,197388,-0.12970056,-0.06044415,0.45173585,11.50769,0,0
235956000,235956000,197388,-0.14655542,-0.045548808,0.45371065,11.5078125,0,0
236964000,236964000,197388,-0.15818125,-0.05405677,0.45047808,11.508057,0,0
237960000,237960000,197388,-0.16364534,-0.06988584,0.44580775,11.508362,0,0
238956000,238956000,197388,-0.1659791,-0.0824338,0.44142222,11.508514,0,0
239952000,239952000,197388,-0.17107779,-0.097124286,0.43648517,11.508667,0,0
240960000,240960000,197388,-0.14435835,-0.27268964,0.37336192,11.5086975,0,0
241956000,241956000,197388,-0.059754763,-0.43827012,0.18100533,11.509277,0,0
242956000,242956000,197388,0.08715023,-0.46380693,0.11105594,11.513153,0,0
243960000,243960000,197388,0.20349279,-0.38888627,0.18281072,11.516937,0,0
244956000,244956000,197388,0.20989019,-0.26806518,0.33620143,11.519287,0,0
245968000,245968000,197388,0.17794864,-0.03682465,0.4461438,11.518921,0,0
246960000,246960000,197388,0.17791052,0.15307377,0.42314416,11.513031,0,0
247956000,247956000,197388,0.21281455,0.20045696,0.3844647,11.50882,0,0
248968000,248968000,197388,0.22195424,0.17195153,0.39024907,11.508179,0,0
249960000,249960000,197388,0.23262914,0.104222946,0.40564722,11.50827,0,0
250956000,250956000,197388,0.23157676,0.059001684,0.4165065,11.507874,0,0
251968000,251968000,197388,0.23913574,0.03345237,0.4165173,11.507446,0,0
252960000,252960000,197388,0.23758654,0.024910064,0.41747254,11.507263,0,0
253956000,253956000,197388,0.23437053,0.01583235,0.42288572,11.507172,0,0
254964000,254964000,197388,0.2362688,0.01382742,0.41655034,11.50705,0,0
255960000,255960000,197388,0.24017036,0.01939862,0.41352192,11.506775,0,0
256956000,256956000,197388,0.23576042,0.020131228,0.41577402,11.506622,0,0
257952000,257952000,197388,0.22626223,0.024442745,0.41418064,11.506439,0,0
258964000,258964000,197388,0.23251088,0.0215328,0.41664594,11.506592,0,0
259956000,259956000,197388,0.23349704,0.019757668,0.41376194,11.506805,0,0
260956000,260956000,197388,0.23553129,0.019679239,0.42330077,11.506897,0,0
261960000,261960000,197388,0.23600891,0.017015798,0.418202,11.507172,0,0
262956000,262956000,197388,0.2311288,0.015615666,0.41820252,11.507538,0,0
263952000,263952000,197388,0.2328128,0.024839206,0.4198033,11.507935,0,0
264960000,264960000,197388,0.24139716,0.019408477,0.41582116,11.50827,0,0
265956000,265956000,197388,0.24213272,0.06094879,0.41473475,11.508606,0,0
266952000,266952000,197388,0.24679106,0.19865325,0.3633902,11.507782,0,0
267964000,267964000,197388,0.16445324,0.15402672,0.41593194,11.509766,0,0
268956000,268956000,197388,0.06243147,0.076279856,0.47474578,11.513092,0,0
269964000,269964000,197388,-0.031211458,-0.043234266,0.48271647,11.514221,0,0
270960000,270960000,197388,-0.060482074,-0.14809267,0.4542601,11.512268,0,0
271956000,271956000,197388,-0.06463867,-0.19948627,0.42608804,11.510284,0,0
272964000,272964000,197388,-0.064850226,-0.22928792,0.416798,11.509552,0,0
273960000,273960000,197388,-0.051613543,-0.22493541,0.4193511,11.509491,0,0
274960000,274960000,197388,-0.040002268,-0.22344553,0.41879076,11.509491,0,0
275964000,275964000,197388,-0.03430568,-0.21625377,0.42626286,11.509552,0,0
276960000,276960000,197388,-0.036042575,-0.21259014,0.4305848,11.5095825,0,0
277956000,277956000,197388,-0.038939685,-0.20904055,0.43291208,11.509705,0,0
278968000,278968000,197388,-0.034503035,-0.21133411,0.43601364,11.509796,0,0
279960000,279960000,197388,-0.03589485,-0.21315,0.42753598,11.509918,0,0
280956000,280956000,197388,-0.022583546,-0.24952158,0.406297,11.510162,0,0
281964000,281964000,197388,-0.004297802,-0.29872695,0.3756568,11.5104065,0,0
282960000,282960000,197388,0.020710373,-0.30336845,0.37406573,11.510834,0,0
283956000,283956000,197388,0.036270823,-0.27817202,0.39254272,11.511047,0,0
284968000,284968000,197388,0.06082756,-0.24635488,0.40860152,11.510956,0,0
285960000,285960000,197388,0.06998696,-0.22997303,0.4182601,11.510681,0,0
286960000,286960000,197388,0.073446244,-0.21503466,0.41971624,11.510345,0,0
287964000,287964000,197388,0.072936095,-0.2058313,0.4261015,11.51004,0,0
288964000,288964000,197388,0.07782927,-0.20724645,0.42384896,11.509827,0,0
289960000,289960000,197388,0.073528685,-0.21322235,0.42184666,11.509552,0,0
290964000,290964000,197388,0.07984403,-0.24846119,0.40082058,11.509155,0,0
291964000,291964000,197388,0.10250935,-0.29164416,0.36347196,11.508972,0,0
292956000,292956000,197388,0.13607174,-0.283641,0.35741082,11.509155,0,0
293952000,293952000,197388,0.15933028,-0.24164018,0.37685472,11.509277,0,0
294960000,294960000,197388,0.17304605,-0.19502291,0.40362024,11.509094,0,0
295956000,295956000,197388,0.1853543,-0.16234055,0.421194,11.508545,0,0
296968000,296968000,197388,0.18590721,-0.1394695,0.42502576,11.508118,0,0
297960000,297960000,197388,0.19458346,-0.13986258,0.42163816,11.507782,0,0
298956000,298956000,197388,0.21951212,-0.24430673,0.35962206,11.507324,0,0
299964000,299964000,197388,0.23947664,-0.2752652,0.3156188,11.507568,0,0
300960000,300960000,197388,0.22069064,-0.19987068,0.3782555,11.5104065,0,0
301956000,301956000,197388,0.17787069,-0.072286196,0.4448983,11.512604,0,0
302964000,302964000,197388,0.1339044,0.06010563,0.4621137,11.511993,0,0
303960000,303960000,197388,0.12613605,0.15239255,0.44657078,11.509644,0,0
304956000,304956000,197388,0.12065383,0.19346015,0.4203804,11.507965,0,0
305956000,305956000,197388,0.12722932,0.20827755,0.42282757,11.507446,0,0
306960000,306960000,197388,0.1326548,0.20277862,0.42210007,11.507202,0,0
307960000,307960000,197388,0.1336776,0.19268782,0.42254218,11.506805,0,0
308964000,308964000,197388,0.13557126,0.18471205,0.4252198,11.506653,0,0
309960000,309960000,197388,0.13762645,0.1832583,0.416086,11.506592,0,0
310960000,310960000,197388,0.1365204,0.18519194,0.4281283,11.506561,0,0
311968000,311968000,197388,0.13737954,0.1822631,0.42642614,11.506348,0,0
312960000,312960000,197388,0.13082609,0.18602277,0.42394868,11.506409,0,0
313956000,313956000,197388,0.12941681,0.18268996,0.41933626,11.506378,0,0
314968000,314968000,197388,0.1980204,0.35629404,0.2658591,11.5052185,0,0
315964000,315964000,197388,0.24850537,0.32252756,0.25593483,11.505737,0,0
316960000,316960000,197388,0.21190467,0.22832271,0.3730167,11.5086975,0,0
317964000,317964000,197388,0.0975251,0.09655845,0.45768037,11.511963,0,0
318960000,318960000,197388,0.018381359,-0.06254548,0.4767417,11.51236,0,0
319960000,319960000,197388,-0.00377744,-0.20388834,0.4390856,11.509125,0,0
320968000,320968000,197388,0.007153903,-0.2643119,0.40022948,11.506561,0,0
321960000,321960000,197388,0.035200518,-0.27818698,0.38704652,11.506256,0,0
322956000,322956000,197388,0.056785222,-0.25542483,0.40556327,11.506378,0,0
323964000,323964000,197388,0.059669472,-0.23629403,0.41265,11.506317,0,0
324960000,324960000,197388,0.06582807,-0.21932667,0.42653623,11.506073,0,0
325960000,325960000,197388,0.068768375,-0.2159133,0.42282775,11.505707,0,0
326964000,326964000,197388,0.07586937,-0.20571262,0.43106648,11.50589,0,0
327960000,327960000,197388,0.06813462,-0.20902784,0.43218645,11.505981,0,0
328956000,328956000,197388,0.071373075,-0.21107835,0.421708,11.506073,0,0
329964000,329964000,197388,0.07413037,-0.21221708,0.42391956,11.506165,0,0
330960000,330960000,197388,0.067269444,-0.21112405,0.42727822,11.506195,0,0
331956000,331956000,197388,0.07021166,-0.21161513,0.4252727,11.506195,0,0
332956000,332956000,197388,0.06955872,-0.21605812,0.42350054,11.506348,0,0
333960000,333960000,197388,0.06674159,-0.20788895,0.43199354,11.506622,0,0
334956000,334956000,197388,0.06750485,-0.20789436,0.42549762,11.506683,0,0
335964000,335964000,197388,0.06774409,-0.21600498,0.42832726,11.5069275,0,0
336960000,336960000,197388,0.06446059,-0.20923412,0.42723677,11.50705,0,0
337956000,337956000,197388,0.019598255,0.031213839,0.47627744,11.506287,0,0
338968000,338968000,197388,-0.07249425,0.1250248,0.4583336,11.50708,0,0
339960000,339960000,197388,-0.16207418,0.14057912,0.4330322,11.509735,0,0
340960000,340960000,197388,-0.20001103,0.117255256,0.41910434,11.511017,0,0
341964000,341964000,197388,-0.20735608,0.061266277,0.4301632,11.509827,0,0
342960000,342960000,197388,-0.19786426,0.013125652,0.4440041,11.508026,0,0
343956000,343956000,197388,-0.19420385,-0.00742852,0.44052708,11.507324,0,0
344956000,344956000,197388,-0.19767515,-0.016882973,0.4385539,11.507477,0,0
345960000,345960000,197388,-0.20386706,-0.017913591,0.43381447,11.507935,0,0
346956000,346956000,197388,-0.19728538,-0.012697555,0.43885833,11.50827,0,0
347952000,347952000,197388,-0.18641557,-0.008070755,0.44298962,11.508606,0,0
348960000,348960000,197388,-0.19503315,-0.008288012,0.44108638,11.508972,0,0
349960000,349960000,197388,-0.18518922,-0.005997749,0.4458145,11.509155,0,0
350968000,350968000,197388,-0.1944021,-0.011374078,0.44214132,11.509216,0,0
351964000,351964000,197388,-0.19731909,-0.012151064,0.43935195,11.509186,0,0
352956000,352956000,197388,-0.19595084,-0.015516175,0.44230887,11.509216,0,0
353968000,353968000,197388,-0.19382429,-0.0070481356,0.44228372,11.509094,0,0
354960000,354960000,197388,-0.19262213,-0.012523863,0.43503112,11.509003,0,0
355960000,355960000,197388,-0.19567959,-0.014646964,0.44230962,11.508942,0,0
356964000,356964000,197388,-0.19257617,-0.016981827,0.43745995,11.509064,0,0
357960000,357960000,197388,-0.19422796,-0.012775337,0.43772686,11.509064,0,0
358956000,358956000,197388,-0.18886043,-0.009721779,0.44395554,11.509125,0,0
359968000,359968000,197388,-0.19875926,-0.016076067,0.43632156,11.509094,0,0
360964000,360964000,197388,-0.1987128,-0.008293738,0.433704,11.509033,0,0
361956000,361956000,197388,-0.20468234,-0.0025197896,0.43765453,11.509003,0,0
362968000,362968000,197388,-0.20242538,-0.0057916045,0.44235113,11.508972,0,0
363964000,363964000,197388,-0.19707774,-0.00804234,0.43519375,11.508911,0,0
364960000,364960000,197388,-0.19831118,-0.010465259,0.43980074,11.50885,0,0
365964000,365964000,197388,-0.17029835,-0.32282105,0.32663253,11.508087,0,0
366964000,366964000,197388,-0.094836585,-0.44434902,0.16726068,11.5095215,0,0
367956000,367956000,197388,0.056681767,-0.46280122,0.113896914,11.51297,0,0
368952000,368952000,197388,0.15517634,-0.39492264,0.20722269,11.516022,0,0
369964000,369964000,197388,0.1893678,-0.24686277,0.3687015,11.516083,0,0
370956000,370956000,197388,0.19885877,-0.07023725,0.43419462,11.511627,0,0
371964000,371964000,197388,0.21848504,-0.000657789,0.43149358,11.507355,0,0
372960000,372960000,197388,0.21436279,-0.006318218,0.42481932,11.50647,0,0
373956000,373956000,197388,0.2185184,-0.048571214,0.4213582,11.506622,0,0
374968000,374968000,197388,0.20345226,-0.09094644,0.42435813,11.50647,0,0
375960000,375960000,197388,0.20289433,-0.11379187,0.4215134,11.506378,0,0
376960000,376960000,197388,0.1901084,-0.1263777,0.42288426,11.506378,0,0
377952000,377952000,197388,0.19579077,-0.122661605,0.41710386,11.506439,0,0
378960000,378960000,197388,0.20161085,-0.1283466,0.41808453,11.506531,0,0
379956000,379956000,197388,0.20150685,-0.12818901,0.4176605,11.506531,0,0
380964000,380964000,197388,0.19617496,-0.122117594,0.42332366,11.506683,0,0
381960000,381960000,197388,0.18226993,-0.09717677,0.43003565,11.506683,0,0
382960000,382960000,197388,0.17335989,-0.04250594,0.4407157,11.506683,0,0
383964000,383964000,197388,0.14986286,-0.04875981,0.45057338,11.506897,0,0
384960000,384960000,197388,0.11362432,-0.09202472,0.46816579,11.507416,0,0
385956000,385956000,197388,0.08817287,-0.14801608,0.44701633,11.507568,0,0
386952000,386952000,197388,0.074673824,-0.1806125,0.43730566,11.507477,0,0
387964000,387964000,197388,0.06223607,-0.20506406,0.42821684,11.507446,0,0
388956000,388956000,197388,0.06442589,-0.2088953,0.42739502,11.507629,0,0
389964000,389964000,197388,0.06165412,-0.21390802,0.422474,11.507751,0,0
390964000,390964000,197388,0.056247324,-0.21440707,0.43466815,11.50766,0,0
391960000,391960000,197388,0.02933065,-0.007715336,0.48315984,11.506958,0,0
392968000,392968000,197388,-0.054847814,0.1134824,0.4654136,11.50708,0,0
393960000,393960000,197388,-0.14351054,0.14758511,0.43352386,11.509644,0,0
394956000,394956000,197388,-0.19293366,0.13041706,0.42052695,11.511444,0,0
395964000,395964000,197388,-0.21030733,0.08132656,0.43752104,11.510651,0,0
396960000,396960000,197388,-0.20693614,0.032851804,0.43256587,11.5086975,0,0
397956000,397956000,197388,-0.1929451,-0.010117573,0.44115737,11.507568,0,0
398956000,398956000,197388,-0.19218402,-0.009230556,0.4439079,11.507385,0,0
399960000,399960000,197388,-0.19917355,-0.0125936195,0.44618553,11.507233,0,0
400956000,400956000,197388,-0.19331668,-0.005791763,0.44284713,11.507324,0,0
401964000,401964000,197388,-0.19759135,-0.17269993,0.40529323,11.50708,0,0
402964000,402964000,197388,-0.17243257,-0.26825294,0.35888708,11.507477,0,0
403956000,403956000,197388,-0.13896784,-0.3082297,0.33547375,11.508514,0,0
404964000,404964000,197388,-0.10194353,-0.29390284,0.35622168,11.509216,0,0
405964000,405964000,197388,-0.07954424,-0.27064157,0.391992,11.508881,0,0
406956000,406956000,197388,-0.06750667,-0.2280341,0.42435148,11.507965,0,0
407964000,407964000,197388,-0.045280173,-0.21150029,0.43024775,11.507324,0,0
408960000,408960000,197388,-0.037874557,-0.23852605,0.41643763,11.507446,0,0
409960000,409960000,197388,-0.012015303,-0.3192655,0.35996184,11.507324,0,0
410952000,410952000,197388,0.02879788,-0.34181306,0.33524895,11.507385,0,0
411960000,411960000,197388,0.06869307,-0.33145413,0.34454864,11.507935,0,0
412956000,412956000,197388,0.10242943,-0.2808139,0.3746771,11.508209,0,0
413964000,413964000,197388,0.11515963,-0.23062445,0.39811778,11.507965,0,0
414960000,414960000,197388,0.13056633,-0.19774117,0.41377488,11.507599,0,0
415960000,415960000,197388,0.13985597,-0.17942593,0.42610556,11.507507,0,0
416968000,416968000,197388,0.13888724,-0.183495,0.41845164,11.507477,0,0
417960000,417960000,197388,0.13802205,-0.17943302,0.42359543,11.507477,0,0
418960000,418960000,197388,0.13488913,-0.1854349,0.4173675,11.507568,0,0
419952000,419952000,197388,0.1350013,-0.19659498,0.42776304,11.507721,0,0
420960000,420960000,197388,0.12616001,-0.17655472,0.43341845,11.507599,0,0
421956000,421956000,197388,0.1252004,-0.1708043,0.4261594,11.507538,0,0
422952000,422952000,197388,0.11977937,-0.18888302,0.42689353,11.507477,0,0
423960000,423960000,197388,0.122432426,-0.1884191,0.42067367,11.507355,0,0
424956000,424956000,197388,0.12221575,-0.19811028,0.42442203,11.507294,0,0
425968000,425968000,197388,0.12146455,-0.19929492,0.420159,11.507294,0,0
426960000,426960000,197388,0.12090794,-0.19292282,0.42290172,11.507385,0,0
427956000,427956000,197388,0.11479959,-0.19633059,0.42826247,11.50705,0,0
428964000,428964000,197388,0.12214278,-0.18965554,0.42395407,11.506866,0,0
429960000,429960000,197388,0.1235877,-0.19926035,0.42195648,11.506683,0,0
430960000,430960000,197388,0.11853525,-0.19608024,0.4258503,11.506561,0,0
431952000,431952000,197388,0.123693414,-0.19080853,0.4205093,11.506409,0,0
432960000,432960000,197388,0.11926178,-0.1919204,0.41851914,11.506287,0,0
433956000,433956000,197388,0.12165894,-0.1914118,0.4266465,11.506195,0,0
434964000,434964000,197388,0.12217199,-0.19109127,0.42187354,11.506012,0,0
435960000,435960000,197388,0.117263176,-0.19655894,0.4167634,11.505829,0,0
436960000,436960000,197388,0.12225764,-0.19218898,0.42560104,11.505829,0,0
437964000,437964000,197388,0.12176867,-0.18547651,0.42564932,11.505798,0,0
438964000,438964000,197388,0.12134581,-0.18815444,0.4183851,11.505615,0,0
439960000,439960000,197388,0.115257375,-0.19034348,0.42281413,11.505646,0,0
440964000,440964000,197388,0.11664155,-0.19641802,0.42406625,11.505768,0,0
441964000,441964000,197388,0.12075327,-0.19332893,0.42079687,11.50592,0,0
442956000,442956000,197388,0.11936573,-0.19544941,0.42145962,11.5060425,0,0
443968000,443968000,197388,0.11620303,-0.19364686,0.419338,11.506409,0,0
444960000,444960000,197388,0.12373821,-0.19367093,0.42167395,11.506683,0,0
445956000,445956000,197388,0.11686787,-0.19704674,0.42065415,11.506866,0,0
446968000,446968000,197388,0.121669464,-0.18854383,0.41680455,11.507111,0,0
447960000,447960000,197388,0.12251885,-0.18393679,0.4228143,11.507355,0,0
448956000,448956000,197388,0.121942386,-0.18414538,0.424637,11.507385,0,0
449952000,449952000,197388,0.12669772,-0.20115426,0.41740415,11.507446,0,0
450960000,450960000,197388,0.115819134,-0.19362715,0.42074823,11.507477,0,0
451956000,451956000,197388,0.14209346,-0.20350827,0.41200623,11.508118,0,0
452964000,452964000,197388,0.21310781,-0.28089908,0.3307425,11.516815,0,0
453960000,453960000,197388,0.27215993,-0.29711077,0.27618775,11.529907,0,0
454956000,454956000,197388,0.286888,-0.22913769,0.31025302,11.544159,0,0
455964000,455964000,197388,0.2788593,-0.074605584,0.38220003,11.558746,0,0
456960000,456960000,197388,0.26768982,0.041905656,0.4124898,11.568848,0,0
457960000,457960000,197388,0.23898385,0.06514841,0.40864217,11.57135,0,0
458952000,458952000,197388,0.22257653,0.047752228,0.41952536,11.571655,0,0
459964000,459964000,197388,0.18996583,0.0003349449,0.4398119,11.57193,0,0
460960000,460960000,197388,0.16312708,-0.031714983,0.4464103,11.572205,0,0
461952000,461952000,197388,0.12124041,-0.0631477,0.46270004,11.572266,0,0
462964000,462964000,197388,0.08643135,-0.076734714,0.46335214,11.572144,0,0
463960000,463960000,197388,0.041704684,-0.08554957,0.47830957,11.5720825,0,0
464968000,464968000,197388,-0.0003685274,-0.08310776,0.4709637,11.572144,0,0
465960000,465960000,197388,-0.0433921,-0.078087606,0.4775479,11.572144,0,0
466956000,466956000,197388,-0.07877832,-0.061725795,0.46941435,11.572174,0,0
467964000,467964000,197388,-0.1143678,-0.036773708,0.4683869,11.572052,0,0
468964000,468964000,197388,-0.15013464,-0.017179953,0.45766506,11.571991,0,0
469956000,469956000,197388,-0.16475625,0.024939626,0.45188197,11.571991,0,0
470952000,470952000,197388,-0.18711635,0.052735593,0.43610936,11.5720825,0,0
471964000,471964000,197388,-0.19212082,0.103686154,0.43010315,11.572113,0,0
472956000,472956000,197388,-0.19951324,0.13858074,0.41379198,11.572205,0,0
473964000,473964000,197388,-0.19078311,0.18298282,0.40664583,11.572266,0,0
474960000,474960000,197388,-0.16614503,0.21281125,0.39408147,11.572357,0,0
475956000,475956000,197388,-0.14631106,0.24804382,0.3804408,11.572479,0,0
476964000,476964000,197388,-0.12234883,0.27045763,0.37510318,11.572662,0,0
477960000,477960000,197388,-0.101373374,0.28658676,0.38084352,11.572571,0,0
478956000,478956000,197388,-0.06716588,0.2411371,0.40971714,11.567078,0,0
479968000,479968000,197388,-0.046331756,0.20162022,0.43983263,11.563751,0,0
480960000,480960000,197388,-0.024785778,0.19333716,0.44003573,11.564178,0,0
481956000,481956000,197388,-0.04920905,0.1994364,0.4403065,11.565857,0,0
482964000,482964000,197388,-0.05560175,0.20444235,0.431189,11.566101,0,0
483960000,483960000,197388,-0.056640837,0.21006753,0.43336222,11.5660095,0,0
484960000,484960000,197388,-0.04888989,0.20765184,0.4346366,11.565887,0,0
485968000,485968000,197388,-0.04518421,0.1975741,0.42918572,11.565857,0,0
486964000,486964000,197388,-0.06508399,0.20523767,0.42678016,11.5651245,0,0
487960000,487960000,197388,-0.02997244,0.19965407,0.4349353,11.56366,0,0
488968000,488968000,197388,-0.0032583873,0.2013286,0.43436933,11.568329,0,0
489964000,489964000,197388,-0.012619618,0.19903551,0.435446,11.574982,0,0
490956000,490956000,197388,-0.014639793,0.20356728,0.43690932,11.5807495,0,0
491968000,491968000,197388,0.0020775863,0.20782255,0.4330574,11.587433,0,0
492964000,492964000,197388,0.00036277954,0.20298849,0.4337884,11.595367,0,0
493960000,493960000,197388,0.0051644635,0.20116559,0.4290004,11.604004,0,0
494956000,494956000,197388,0.0063055693,0.20146513,0.44319808,11.6128845,0,0
495964000,495964000,197388,0.006430022,0.1982101,0.4367854,11.621735,0,0
496956000,496956000,197388,0.007862106,0.19823126,0.43884954,11.630615,0,0
497964000,497964000,197388,0.0042700805,0.20786467,0.42810485,11.639801,0,0
498960000,498960000,197388,0.00053724536,0.20897308,0.44253007,11.649048,0,0
499956000,499956000,197388,0.012474456,0.20066513,0.4344605,11.658264,0,0
500964000,500964000,197388,0.00040954506,0.2049202,0.4413917,11.667816,0,0
501960000,501960000,197388,0.009748878,0.1999948,0.43905813,11.677429,0,0
502960000,502960000,197388,0.0053784503,0.20615801,0.4366883,11.686829,0,0
503952000,503952000,197388,0.0070665902,0.19212344,0.4360953,11.696533,0,0
504960000,504960000,197388,0.0043229787,0.20166923,0.43007362,11.706268,0,0
505956000,505956000,197388,0.004747729,0.20328176,0.44287103,11.71579,0,0
506968000,506968000,197388,0.0056690327,0.20205203,0.43171778,11.725616,0,0
507960000,507960000,197388,0.009057134,0.20157474,0.4383607,11.735474,0,0
508960000,508960000,197388,0.005099761,0.20195547,0.43483922,11.745117,0,0
509956000,509956000,197388,0.011277241,0.19748813,0.4345671,11.755035,0,0
510960000,510960000,197388,0.0047895014,0.19294585,0.43863887,11.764984,0,0
511956000,511956000,197388,0.0018876422,0.19724531,0.43173394,11.77478,0,0
512964000,512964000,197388,0.0053209937,0.20413373,0.43806818,11.7847595,0,0
513960000,513960000,197388,0.0045504253,0.20124756,0.4434101,11.794739,0,0
514956000,514956000,197388,-0.010128451,0.2019673,0.43322736,11.804138,0,0
515968000,515968000,197388,-0.028144,0.19938694,0.43309614,11.810699,0,0
516960000,516960000,197388,-0.066650614,0.20328371,0.4300516,11.813202,0,0
517960000,517960000,197388,-0.062767886,0.19469664,0.43279964,11.81073,0,0
518964000,518964000,197388,-0.06703693,0.20510148,0.43210807,11.808563,0,0
519960000,519960000,197388,-0.06788886,0.19422139,0.43327847,11.807007,0,0
520956000,520956000,197388,-0.069984764,0.2010127,0.43323123,11.805664,0,0
521968000,521968000,197388,-0.07248671,0.2011959,0.43944538,11.80426,0,0
522964000,522964000,197388,-0.04769458,0.19674821,0.43678865,11.803741,0,0
523960000,523960000,197388,-0.019819558,0.19024143,0.44154745,11.806854,0,0
524964000,524964000,197388,-0.04042773,0.2025311,0.43687478,11.811371,0,0
525964000,525964000,197388,-0.07040721,0.20301457,0.43501142,11.811035,0,0
526960000,526960000,197388,-0.06957508,0.19998863,0.43727785,11.809204,0,0
527964000,527964000,197388,-0.037020925,0.20261727,0.43624988,11.808777,0,0
528964000,528964000,197388,-0.015817001,0.20396604,0.43718514,11.812653,0,0
529960000,529960000,197388,-0.04699282,0.20085377,0.43685102,11.817139,0,0
530952000,530952000,197388,-0.07599839,0.203598,0.43237072,11.816101,0,0
531960000,531960000,197388,-0.07915222,0.19698082,0.43038073,11.81366,0,0
532956000,532956000,197388,-0.03304579,0.19559179,0.4400447,11.813538,0,0
533952000,533952000,197388,-0.022326358,0.21096373,0.4376957,11.818481,0,0
534960000,534960000,197388,-0.05648402,0.19436194,0.4315305,11.822632,0,0
535960000,535960000,197388,-0.0830588,0.19784926,0.43186098,11.820282,0,0
536964000,536964000,197388,-0.06836432,0.20141084,0.4290232,11.817413,0,0
537960000,537960000,197388,-0.022277463,0.20365833,0.44306692,11.818665,0,0
538956000,538956000,197388,-0.006618993,0.20266177,0.4358833,11.8255005,0,0
539952000,539952000,197388,-0.07595283,0.19963455,0.43181664,11.828461,0,0
540964000,540964000,197388,-0.08637061,0.20112425,0.4237522,11.824463,0,0
541956000,541956000,197388,-0.07033305,0.2024473,0.4347124,11.821381,0,0
542964000,542964000,197388,0.0057141567,0.20176896,0.43790954,11.824036,0,0
543960000,543960000,197388,-0.009112588,0.20036688,0.4402526,11.832336,0,0
544956000,544956000,197388,-0.09050104,0.19146305,0.4295449,11.832581,0,0
545964000,545964000,197388,-0.091650024,0.19299605,0.42708266,11.832581,0,0
546960000,546960000,197388,-0.10294827,0.19084753,0.43339446,11.832581,0,0
547960000,547960000,197388,-0.09207167,0.20112874,0.42988256,11.832581,0,0
548956000,548956000,197388,-0.09930946,0.19271338,0.42797282,11.832581,0,0
549964000,549964000,197388,-0.09615376,0.19955872,0.42915013,11.832581,0,0
