timestamp,time_utc_usec,device_id,lat,lon,alt,alt_ellipsoid,s_variance_m_s,c_variance_rad,eph,epv,hdop,vdop,noise_per_ms,jamming_indicator,vel_m_s,vel_n_m_s,vel_e_m_s,vel_d_m_s,cog_rad,timestamp_time_relative,heading,heading_offset,automatic_gain_control,fix_type,jamming_state,vel_ned_valid,satellites_used
676000,1652220075085570,0,473977508,85456073,488180,488180,0.25,0.5,1.0,1.0,0.0,0.0,0,0,0.0,0.0,0.0,-0.02,0.84648466,0,nan,nan,0,3,0,1,10
1880000,1652220076289570,0,473977508,85456073,488171,488171,0.25,0.5,1.0,1.0,0.0,0.0,0,0,0.0,0.0,0.0,-0.01,1.7936748,0,nan,nan,0,3,0,1,10
2680000,1652220077085570,0,473977508,85456073,488171,488171,0.25,0.5,1.0,1.0,0.0,0.0,0,0,0.0,0.0,0.01,-0.02,2.0903807,0,nan,nan,0,3,0,1,10
3880000,1652220078289570,0,473977508,85456073,488179,488179,0.25,0.5,1.0,1.0,0.0,0.0,0,0,0.0,-0.01,-0.01,-0.01,3.923849,0,nan,nan,0,3,0,1,10
4676000,1652220079085570,0,473977508,85456073,488170,488170,0.25,0.5,1.0,1.0,0.0,0.0,0,0,0.0,0.01,0.0,0.02,6.1919045,0,nan,nan,0,3,0,1,10
5880000,1652220080289570,0,473977508,85456073,488174,488174,0.25,0.5,1.0,1.0,0.0,0.0,0,0,0.0,0.0,0.0,-0.01,5.9735637,0,nan,nan,0,3,0,1,10
6680000,1652220081085570,0,473977508,85456072,488160,488160,0.25,0.5,1.0,1.0,0.0,0.0,0,0,0.0,-0.02,0.01,-0.03,2.5195572,0,nan,nan,0,3,0,1,10
7880000,1652220082289570,0,473977508,85456073,488165,488165,0.25,0.5,1.0,1.0,0.0,0.0,0,0,0.0,0.01,-0.02,0.01,5.474923,0,nan,nan,0,3,0,1,10
8680000,1652220083085570,0,473977507,85456073,488178,488178,0.25,0.5,1.0,1.0,0.0,0.0,0,0,0.0,0.0,0.0,0.0,2.555162,0,nan,nan,0,3,0,1,10
9876000,1652220084289570,0,473977508,85456073,488173,488173,0.25,0.5,1.0,1.0,0.0,0.0,0,0,0.0,0.01,0.0,0.01,0.14398967,0,nan,nan,0,3,0,1,10
10676000,1652220085085570,0,473977508,85456073,488178,488178,0.25,0.5,1.0,1.0,0.0,0.0,0,0,0.0,-0.01,0.0,-0.01,2.727077,0,nan,nan,0,3,0,1,10
11880000,1652220086289570,0,473977508,85456073,488176,488176,0.25,0.5,1.0,1.0,0.0,0.0,0,0,0.0,0.02,0.0,-0.02,0.19425514,0,nan,nan,0,3,0,1,10
12680000,1652220087085570,0,473977508,85456072,488167,488167,0.25,0.5,1.0,1.0,0.0,0.0,0,0,0.0,0.0,0.0,-0.01,0.9061749,0,nan,nan,0,3,0,1,10
13876000,1652220088285570,0,473977508,85456072,488168,488168,0.25,0.5,1.0,1.0,0.0,0.0,0,0,0.0,0.0,0.0,0.0,2.0374973,0,nan,nan,0,3,0,1,10
14680000,1652220089085570,0,473977508,85456072,488173,488173,0.25,0.5,1.0,1.0,0.0,0.0,0,0,0.0,-0.01,-0.01,-0.049999997,3.827856,0,nan,nan,0,3,0,1,10
15880000,1652220090285570,0,473977508,85456073,488168,488168,0.25,0.5,1.0,1.0,0.0,0.0,0,0,0.0,-0.01,0.0,0.0,3.512475,0,nan,nan,0,3,0,1,10
16676000,1652220091085570,0,473977508,85456073,488166,488166,0.25,0.5,1.0,1.0,0.0,0.0,0,0,0.0,0.02,0.0,-0.03,5.969026,0,nan,nan,0,3,0,1,10
17876000,1652220092285570,0,473977508,85456073,488174,488174,0.25,0.5,1.0,1.0,0.0,0.0,0,0,0.0,0.0,0.0,-0.03,1.5322245,0,nan,nan,0,3,0,1,10
18680000,1652220093085570,0,473977508,85456073,488168,488168,0.25,0.5,1.0,1.0,0.0,0.0,0,0,0.0,0.0,0.0,-0.01,3.552443,0,nan,nan,0,3,0,1,10
19876000,1652220094285570,0,473977508,85456073,488176,488176,0.25,0.5,1.0,1.0,0.0,0.0,0,0,0.0,0.02,0.01,0.0,0.61889374,0,nan,nan,0,3,0,1,10
20680000,1652220095085570,0,473977508,85456072,488173,488173,0.25,0.5,1.0,1.0,0.0,0.0,0,0,0.0,0.01,0.02,-0.01,0.97424275,0,nan,nan,0,3,0,1,10
21880000,1652220096285570,0,473977508,85456073,488163,488163,0.25,0.5,1.0,1.0,0.0,0.0,0,0,0.0,0.0,-0.01,0.03,5.2932343,0,nan,nan,0,3,0,1,10
22676000,1652220097085570,0,473977508,85456072,488174,488174,0.25,0.5,1.0,1.0,0.0,0.0,0,0,0.0,0.0,-0.01,-0.02,4.525115,0,nan,nan,0,3,0,1,10
23880000,1652220098285570,0,473977508,85456073,488173,488173,0.25,0.5,1.0,1.0,0.0,0.0,0,0,0.0,0.0,0.0,0.04,4.7736497,0,nan,nan,0,3,0,1,10
24680000,1652220099085570,0,473977509,85456072,488160,488160,0.25,0.5,1.0,1.0,0.0,0.0,0,0,0.0,0.0,0.02,0.01,1.2442452,0,nan,nan,0,3,0,1,10
25876000,1652220100285570,0,473977508,85456073,488175,488175,0.25,0.5,1.0,1.0,0.0,0.0,0,0,0.0,0.0,0.0,-0.04,4.955513,0,nan,nan,0,3,0,1,10
26676000,1652220101085570,0,473977508,85456073,488168,488168,0.25,0.5,1.0,1.0,0.0,0.0,0,0,0.0,0.0,0.0,0.01,6.051231,0,nan,nan,0,3,0,1,10
27880000,1652220102285570,0,473977508,85456073,488177,488177,0.25,0.5,1.0,1.0,0.0,0.0,0,0,0.0,0.0,0.01,0.06,1.6320573,0,nan,nan,0,3,0,1,10
28676000,1652220103085570,0,473977508,85456073,488170,488170,0.25,0.5,1.0,1.0,0.0,0.0,0,0,0.0,0.0,0.01,0.02,1.844813,0,nan,nan,0,3,0,1,10
29880000,1652220104289570,0,473977508,85456073,488161,488161,0.25,0.5,1.0,1.0,0.0,0.0,0,0,0.0,-0.01,0.0,-0.04,2.4328144,0,nan,nan,0,3,0,1,10
30680000,1652220105089570,0,473977508,85456073,488157,488157,0.25,0.5,1.0,1.0,0.0,0.0,0,0,0.0,0.02,-0.01,0.01,5.6231017,0,nan,nan,0,3,0,1,10
31880000,1652220106289570,0,473977508,85456073,488164,488164,0.25,0.5,1.0,1.0,0.0,0.0,0,0,0.0,0.01,0.0,0.01,0.05026548,0,nan,nan,0,3,0,1,10
32680000,1652220107089570,0,473977508,85456073,488169,488169,0.25,0.5,1.0,1.0,0.0,0.0,0,0,0.0,0.0,0.01,0.03,1.3721777,0,nan,nan,0,3,0,1,10
33876000,1652220108289570,0,473977508,85456072,488170,488170,0.25,0.5,1.0,1.0,0.0,0.0,0,0,0.0,0.0,0.0,0.03,4.5492005,0,nan,nan,0,3,0,1,10
34680000,1652220109089570,0,473977508,85456073,488168,488168,0.25,0.5,1.0,1.0,0.0,0.0,0,0,0.0,0.0,0.0,0.0,6.020164,0,nan,nan,0,3,0,1,10
35880000,1652220110289570,0,473977508,85456073,488182,488182,0.25,0.5,1.0,1.0,0.0,0.0,0,0,0.0,0.0,-0.01,-0.07,4.5383797,0,nan,nan,0,3,0,1,10
36680000,1652220111089570,0,473977508,85456073,488176,488176,0.25,0.5,1.0,1.0,0.0,0.0,0,0,0.0,-0.01,0.0,-0.01,2.4476495,0,nan,nan,0,3,0,1,10
37880000,1652220112289570,0,473977508,85456073,488165,488165,0.25,0.5,1.0,1.0,0.0,0.0,0,0,0.0,-0.01,0.0,-0.03,3.278252,0,nan,nan,0,3,0,1,10
38680000,1652220113089570,0,473977508,85456073,488180,488180,0.25,0.5,1.0,1.0,0.0,0.0,0,0,0.0,-0.01,0.0,0.0,2.554289,0,nan,nan,0,3,0,1,10
39876000,1652220114289570,0,473977508,85456072,488178,488178,0.25,0.5,1.0,1.0,0.0,0.0,0,0,0.0,-0.01,0.0,-0.01,2.8778734,0,nan,nan,0,3,0,1,10
40680000,1652220115089570,0,473977508,85456073,488166,488166,0.25,0.5,1.0,1.0,0.0,0.0,0,0,0.0,0.0,-0.01,0.01,4.7582912,0,nan,nan,0,3,0,1,10
41876000,1652220116289570,0,473977508,85456073,488165,488165,0.25,0.5,1.0,1.0,0.0,0.0,0,0,0.0,0.01,-0.01,-0.02,5.4609604,0,nan,nan,0,3,0,1,10
42680000,1652220117089570,0,473977508,85456073,488164,488164,0.25,0.5,1.0,1.0,0.0,0.0,0,0,0.0,0.0,0.01,-0.02,0.9171705,0,nan,nan,0,3,0,1,10
43876000,1652220118289570,0,473977508,85456073,488164,488164,0.25,0.5,1.0,1.0,0.0,0.0,0,0,0.0,0.0,-0.01,0.0,4.3575635,0,nan,nan,0,3,0,1,10
44676000,1652220119089570,0,473977508,85456072,488177,488177,0.25,0.5,1.0,1.0,0.0,0.0,0,0,0.0,0.0,-0.04,-0.03,4.5144687,0,nan,nan,0,3,0,1,10
45880000,1652220120289570,0,473977508,85456073,488165,488165,0.25,0.5,1.0,1.0,0.0,0.0,0,0,0.0,0.01,0.0,0.0,0.5138249,0,nan,nan,0,3,0,1,10
46680000,1652220121089570,0,473977508,85456073,488172,488172,0.25,0.5,1.0,1.0,0.0,0.0,0,0,0.0,0.0,0.0,0.01,0.5930629,0,nan,nan,0,3,0,1,10
47880000,1652220122289570,0,473977508,85456073,488170,488170,0.25,0.5,1.0,1.0,0.0,0.0,0,0,0.0,0.0,-0.02,0.0,4.593706,0,nan,nan,0,3,0,1,10
48680000,1652220123089570,0,473977508,85456073,488183,488183,0.25,0.5,1.0,1.0,0.0,0.0,0,0,0.0,0.01,0.0,0.0,0.10611602,0,nan,nan,0,3,0,1,10
49880000,1652220124289570,0,473977508,85456073,488180,488180,0.25,0.5,1.0,1.0,0.0,0.0,0,0,0.0,0.02,0.01,-0.01,0.42917645,0,nan,nan,0,3,0,1,10
50680000,1652220125089570,0,473977508,85456073,488175,488175,0.25,0.5,1.0,1.0,0.0,0.0,0,0,0.0,-0.02,0.0,-0.01,3.1916835,0,nan,nan,0,3,0,1,10
51880000,1652220126289570,0,473977508,85456073,488175,488175,0.25,0.5,1.0,1.0,0.0,0.0,0,0,0.0,-0.01,0.0,0.0,3.3367202,0,nan,nan,0,3,0,1,10
52676000,1652220127089570,0,473977508,85456073,488177,488177,0.25,0.5,1.0,1.0,0.0,0.0,0,0,0.0,-0.01,0.02,0.0,1.9872319,0,nan,nan,0,3,0,1,10
53880000,1652220128289570,0,473977508,85456072,488169,488169,0.25,0.5,1.0,1.0,0.0,0.0,0,0,0.0,0.0,0.01,0.01,1.1211995,0,nan,nan,0,3,0,1,10
54680000,1652220129089570,0,473977508,85456073,488166,488166,0.25,0.5,1.0,1.0,0.0,0.0,0,0,0.0,0.01,0.0,-0.01,0.42516217,0,nan,nan,0,3,0,1,10
55880000,1652220130289570,0,473977508,85456072,488174,488174,0.25,0.5,1.0,1.0,0.0,0.0,0,0,0.0,-0.01,0.0,0.0,3.30513,0,nan,nan,0,3,0,1,10
56680000,1652220131089570,0,473977508,85456073,488175,488175,0.25,0.5,1.0,1.0,0.0,0.0,0,0,0.0,0.01,0.0,0.02,6.0550704,0,nan,nan,0,3,0,1,10
57880000,1652220132289570,0,473977508,85456074,488176,488176,0.25,0.5,1.0,1.0,0.0,0.0,0,0,0.0,0.0,0.0,0.0,1.3554226,0,nan,nan,0,3,0,1,10
58680000,1652220133089570,0,473977508,85456073,488168,488168,0.25,0.5,1.0,1.0,0.0,0.0,0,0,0.0,-0.01,0.0,0.02,2.8548348,0,nan,nan,0,3,0,1,10
59880000,1652220134289570,0,473977508,85456073,488170,488170,0.25,0.5,1.0,1.0,0.0,0.0,0,0,0.0,0.0,0.0,0.0,5.780356,0,nan,nan,0,3,0,1,10
60680000,1652220135089570,0,473977508,85456073,488181,488181,0.25,0.5,1.0,1.0,0.0,0.0,0,0,0.0,0.0,0.0,-0.02,5.0190434,0,nan,nan,0,3,0,1,10
61880000,1652220136285570,0,473977508,85456073,488174,488174,0.25,0.5,1.0,1.0,0.0,0.0,0,0,0.0,0.0,0.0,0.02,5.850343,0,nan,nan,0,3,0,1,10
62680000,1652220137089570,0,473977508,85456073,488167,488167,0.25,0.5,1.0,1.0,0.0,0.0,0,0,0.0,0.0,-0.01,0.01,4.886922,0,nan,nan,0,3,0,1,10
63880000,1652220138285570,0,473977508,85456073,488168,488168,0.25,0.5,1.0,1.0,0.0,0.0,0,0,0.0,0.0,0.0,0.0,0.35709435,0,nan,nan,0,3,0,1,10
64680000,1652220139089570,0,473977508,85456073,488164,488164,0.25,0.5,1.0,1.0,0.0,0.0,0,0,0.0,0.0,0.0,-0.01,1.1618657,0,nan,nan,0,3,0,1,10
65880000,1652220140285570,0,473977508,85456072,488167,488167,0.25,0.5,1.0,1.0,0.0,0.0,0,0,0.0,-0.02,0.01,0.01,2.530902,0,nan,nan,0,3,0,1,10
66680000,1652220141089570,0,473977508,85456073,488173,488173,0.25,0.5,1.0,1.0,0.0,0.0,0,0,0.0,0.0,0.01,0.0,1.8336428,0,nan,nan,0,3,0,1,10
67876000,1652220142285570,0,473977508,85456073,488181,488181,0.25,0.5,1.0,1.0,0.0,0.0,0,0,0.0,0.0,-0.02,0.0,4.3746676,0,nan,nan,0,3,0,1,10
68680000,1652220143089570,0,473977508,85456073,488182,488182,0.25,0.5,1.0,1.0,0.0,0.0,0,0,0.0,0.02,-0.01,-0.01,5.8850756,0,nan,nan,0,3,0,1,10
69880000,1652220144285570,0,473977508,85456073,488176,488176,0.25,0.5,1.0,1.0,0.0,0.0,0,0,0.0,0.0,0.0,0.01,3.8402479,0,nan,nan,0,3,0,1,10
70676000,1652220145089570,0,473977508,85456073,488177,488177,0.25,0.5,1.0,1.0,0.0,0.0,0,0,0.0,0.02,0.01,-0.01,0.40858158,0,nan,nan,0,3,0,1,10
71876000,1652220146285570,0,473977508,85456073,488175,488175,0.25,0.5,1.0,1.0,0.0,0.0,0,0,0.0,0.0,-0.01,-0.04,4.6989493,0,nan,nan,0,3,0,1,10
72676000,1652220147089570,0,473977508,85456074,488168,488168,0.25,0.5,1.0,1.0,0.0,0.0,0,0,0.0,0.0,-0.01,-0.02,4.8045425,0,nan,nan,0,3,0,1,10
73876000,1652220148285570,0,473977507,85456529,488188,488188,0.25,0.5,1.0,1.0,0.0,0.0,0,0,11.74,-0.12,11.74,-0.089999996,1.5812683,0,nan,nan,0,3,0,1,10
74680000,1652220149089570,0,473977485,85458321,489752,489752,0.25,0.5,1.0,1.0,0.0,0.0,0,0,17.98,-0.32,17.97,-4.7,1.5887731,0,nan,nan,0,3,0,1,10
75876000,1652220150285570,0,473977446,85461197,497180,497180,0.25,0.5,1.0,1.0,0.0,0.0,0,0,18.16,-0.39,18.15,-6.8199997,1.5924383,0,nan,nan,0,3,0,1,10
76680000,1652220151089570,0,473977418,85463059,502374,502374,0.25,0.5,1.0,1.0,0.0,0.0,0,0,16.09,-0.35,16.1,-5.7,1.5927874,0,nan,nan,0,3,0,1,10
77880000,1652220152285570,0,473977386,85465311,507781,507781,0.25,0.5,1.0,1.0,0.0,0.0,0,0,12.54,-0.26999998,12.559999,-3.55,1.592613,0,nan,nan,0,3,0,1,10
78680000,1652220153089570,0,473977364,85466592,510385,510385,0.25,0.5,1.0,1.0,0.0,0.0,0,0,11.5,-0.35,11.49,-2.97,1.6018631,0,nan,nan,0,3,0,1,10
79880000,1652220154285570,0,473977118,85468268,513946,513946,0.25,0.5,1.0,1.0,0.0,0.0,0,0,10.48,-5.37,9.0,-2.9199998,2.1087067,0,nan,nan,0,3,0,1,10
80676000,1652220155089570,0,473976577,85469054,516044,516044,0.25,0.5,1.0,1.0,0.0,0.0,0,0,10.73,-9.4,5.2,-2.44,2.6359708,0,nan,nan,0,3,0,1,10
81880000,1652220156285570,0,473975429,85469144,518822,518822,0.25,0.5,1.0,1.0,0.0,0.0,0,0,11.33,-10.469999,-4.33,-2.23,3.5342917,0,nan,nan,0,3,0,1,10
82676000,1652220157089570,0,473974805,85468356,520648,520648,0.25,0.5,1.0,1.0,0.0,0.0,0,0,11.69,-6.16,-9.91,-2.28,4.1565013,0,nan,nan,0,3,0,1,10
83876000,1652220158285570,0,473974693,85466529,523478,523478,0.25,0.5,1.0,1.0,0.0,0.0,0,0,12.12,4.27,-11.34,-2.46,5.0726247,0,nan,nan,0,3,0,1,10
84680000,1652220159089570,0,473975222,85465499,525496,525496,0.25,0.5,1.0,1.0,0.0,0.0,0,0,12.34,9.849999,-7.4199996,-2.54,5.6372385,0,nan,nan,0,3,0,1,10
85880000,1652220160285570,0,473976487,85464974,528667,528667,0.25,0.5,1.0,1.0,0.0,0.0,0,0,12.63,12.59,0.65,-2.48,0.051487215,0,nan,nan,0,3,0,1,10
86676000,1652220161089570,0,473977427,85465288,529516,529516,0.25,0.5,1.0,1.0,0.0,0.0,0,0,14.0,12.55,6.16,-0.48,0.45657814,0,nan,nan,0,3,0,1,10
87880000,1652220162285570,0,473978414,85467034,530483,530483,0.25,0.5,1.0,1.0,0.0,0.0,0,0,15.179999,4.16,14.599999,-1.43,1.2927654,0,nan,nan,0,3,0,1,10
88676000,1652220163089570,0,473978446,85468655,531997,531997,0.25,0.5,1.0,1.0,0.0,0.0,0,0,15.309999,-2.9199998,15.0199995,-2.31,1.7631315,0,nan,nan,0,3,0,1,10
89880000,1652220164285570,0,473977815,85470861,535238,535238,0.25,0.5,1.0,1.0,0.0,0.0,0,0,14.71,-7.43,12.67,-2.3,2.1012018,0,nan,nan,0,3,0,1,10
90680000,1652220165089570,0,473977255,85472191,536441,536441,0.25,0.5,1.0,1.0,0.0,0.0,0,0,14.57,-7.77,12.32,-0.9,2.1334903,0,nan,nan,0,3,0,1,10
91876000,1652220166285570,0,473976445,85474191,536969,536969,0.25,0.5,1.0,1.0,0.0,0.0,0,0,14.7,-7.02,12.92,-0.21,2.0685642,0,nan,nan,0,3,0,1,10
92676000,1652220167089570,0,473975968,85475605,537105,537105,0.25,0.5,1.0,1.0,0.0,0.0,0,0,14.79,-6.12,13.46,-0.12,1.9973547,0,nan,nan,0,3,0,1,10
93880000,1652220168285570,0,473975381,85477799,537300,537300,0.25,0.5,1.0,1.0,0.0,0.0,0,0,14.79,-4.83,13.98,-0.16,1.903456,0,nan,nan,0,3,0,1,10
94680000,1652220169089570,0,473975051,85479305,537436,537436,0.25,0.5,1.0,1.0,0.0,0.0,0,0,14.7699995,-4.31,14.15,-0.14,1.8662806,0,nan,nan,0,3,0,1,10
95876000,1652220170285570,0,473974610,85481565,537594,537594,0.25,0.5,1.0,1.0,0.0,0.0,0,0,14.74,-3.9399998,14.219999,-0.049999997,1.8409733,0,nan,nan,0,3,0,1,10
96680000,1652220171089570,0,473974330,85483088,537663,537663,0.25,0.5,1.0,1.0,0.0,0.0,0,0,14.71,-3.84,14.2,-0.08,1.83469,0,nan,nan,0,3,0,1,10
97880000,1652220172285570,0,473973915,85485351,537754,537754,0.25,0.5,1.0,1.0,0.0,0.0,0,0,14.7,-3.82,14.2,-0.03,1.8338175,0,nan,nan,0,3,0,1,10
98676000,1652220173089570,0,473973635,85486870,537780,537780,0.25,0.5,1.0,1.0,0.0,0.0,0,0,14.69,-3.9099998,14.15,-0.02,1.840275,0,nan,nan,0,3,0,1,10
99876000,1652220174285570,0,473973218,85489129,537826,537826,0.25,0.5,1.0,1.0,0.0,0.0,0,0,14.67,-3.58,14.25,-0.06,1.8168877,0,nan,nan,0,3,0,1,10
100676000,1652220175089570,0,473973009,85490668,537877,537877,0.25,0.5,1.0,1.0,0.0,0.0,0,0,14.62,-2.05,14.46,-0.02,1.7116444,0,nan,nan,0,3,0,1,10
101876000,1652220176285570,0,473972961,85492992,537879,537879,0.25,0.5,1.0,1.0,0.0,0.0,0,0,14.65,1.2099999,14.599999,0.06,1.4875441,0,nan,nan,0,3,0,1,10
102676000,1652220177089570,0,473973126,85494543,537839,537839,0.25,0.5,1.0,1.0,0.0,0.0,0,0,14.679999,3.24,14.32,0.02,1.3477433,0,nan,nan,0,3,0,1,10
103876000,1652220178285570,0,473973599,85496772,537860,537860,0.25,0.5,1.0,1.0,0.0,0.0,0,0,14.65,5.2599998,13.67,0.0,1.2034044,0,nan,nan,0,3,0,1,10
104680000,1652220179089570,0,473974010,85498219,537894,537894,0.25,0.5,1.0,1.0,0.0,0.0,0,0,14.61,5.95,13.349999,-0.04,1.1515682,0,nan,nan,0,3,0,1,10
105880000,1652220180285570,0,473974680,85500321,537978,537978,0.25,0.5,1.0,1.0,0.0,0.0,0,0,14.58,6.37,13.099999,-0.07,1.1180578,0,nan,nan,0,3,0,1,10
106676000,1652220181089570,0,473975145,85501726,537994,537994,0.25,0.5,1.0,1.0,0.0,0.0,0,0,14.599999,6.42,13.11,-0.06,1.1149163,0,nan,nan,0,3,0,1,10
107880000,1652220182285570,0,473975835,85503817,538005,538005,0.25,0.5,1.0,1.0,0.0,0.0,0,0,14.58,6.35,13.139999,0.01,1.1203268,0,nan,nan,0,3,0,1,10
108680000,1652220183089570,0,473976294,85505225,538006,538006,0.25,0.5,1.0,1.0,0.0,0.0,0,0,14.58,6.29,13.16,0.03,1.1250392,0,nan,nan,0,3,0,1,10
109876000,1652220184285570,0,473976970,85507326,537997,537997,0.25,0.5,1.0,1.0,0.0,0.0,0,0,14.61,6.24,13.21,0.0,1.129228,0,nan,nan,0,3,0,1,10
110680000,1652220185089570,0,473977422,85508739,538033,538033,0.25,0.5,1.0,1.0,0.0,0.0,0,0,14.57,6.18,13.179999,-0.06,1.1320206,0,nan,nan,0,3,0,1,10
111876000,1652220186285570,0,473978092,85510838,538062,538062,0.25,0.5,1.0,1.0,0.0,0.0,0,0,14.559999,6.22,13.16,0.01,1.128879,0,nan,nan,0,3,0,1,10
112680000,1652220187089570,0,473978542,85512249,538076,538076,0.25,0.5,1.0,1.0,0.0,0.0,0,0,14.57,6.21,13.2,-0.049999997,1.1309732,0,nan,nan,0,3,0,1,10
113876000,1652220188285570,0,473979138,85514391,538148,538148,0.25,0.5,1.0,1.0,0.0,0.0,0,0,14.5,4.41,13.809999,-0.04,1.2613494,0,nan,nan,0,3,0,1,10
114680000,1652220189089570,0,473979377,85515903,538158,538158,0.25,0.5,1.0,1.0,0.0,0.0,0,0,14.509999,2.11,14.349999,0.04,1.4241886,0,nan,nan,0,3,0,1,10
115876000,1652220190285570,0,473979412,85518218,538071,538071,0.25,0.5,1.0,1.0,0.0,0.0,0,0,14.599999,-1.35,14.54,0.12,1.6639968,0,nan,nan,0,3,0,1,10
116680000,1652220191089570,0,473979246,85519763,538046,538046,0.25,0.5,1.0,1.0,0.0,0.0,0,0,14.61,-3.1,14.299999,0.0,1.78425,0,nan,nan,0,3,0,1,10
117880000,1652220192285570,0,473978818,85522002,538098,538098,0.25,0.5,1.0,1.0,0.0,0.0,0,0,14.57,-4.5699997,13.849999,-0.07,1.8898425,0,nan,nan,0,3,0,1,10
118676000,1652220193089570,0,473978469,85523473,538176,538176,0.25,0.5,1.0,1.0,0.0,0.0,0,0,14.5199995,-4.96,13.639999,-0.08,1.9193386,0,nan,nan,0,3,0,1,10
119876000,1652220194285570,0,473977924,85525642,538209,538209,0.25,0.5,1.0,1.0,0.0,0.0,0,0,14.53,-5.08,13.61,0.0,1.9278907,0,nan,nan,0,3,0,1,10
120676000,1652220195089570,0,473977555,85527100,538220,538220,0.25,0.5,1.0,1.0,0.0,0.0,0,0,14.509999,-5.04,13.599999,-0.01,1.9256216,0,nan,nan,0,3,0,1,10
121880000,1652220196285570,0,473977016,85529271,538215,538215,0.25,0.5,1.0,1.0,0.0,0.0,0,0,14.5,-4.97,13.62,0.0,1.9207348,0,nan,nan,0,3,0,1,10
122676000,1652220197089570,0,473976659,85530732,538211,538211,0.25,0.5,1.0,1.0,0.0,0.0,0,0,14.509999,-4.92,13.65,0.0,1.9167205,0,nan,nan,0,3,0,1,10
123880000,1652220198285570,0,473976130,85532908,538201,538201,0.25,0.5,1.0,1.0,0.0,0.0,0,0,14.49,-4.89,13.639999,-0.01,1.9148006,0,nan,nan,0,3,0,1,10
124680000,1652220199089570,0,473975776,85534369,538175,538175,0.25,0.5,1.0,1.0,0.0,0.0,0,0,14.49,-4.89,13.65,0.04,1.9148006,0,nan,nan,0,3,0,1,10
125880000,1652220200285570,0,473975249,85536546,538142,538142,0.25,0.5,1.0,1.0,0.0,0.0,0,0,14.5,-4.92,13.66,0.02,1.916546,0,nan,nan,0,3,0,1,10
126680000,1652220201085570,0,473974896,85538002,538129,538129,0.25,0.5,1.0,1.0,0.0,0.0,0,0,14.5199995,-4.89,13.66,-0.03,1.9149753,0,nan,nan,0,3,0,1,10
127876000,1652220202285570,0,473974366,85540190,538105,538105,0.25,0.5,1.0,1.0,0.0,0.0,0,0,14.509999,-4.79,13.7,0.0,1.9071212,0,nan,nan,0,3,0,1,10
128680000,1652220203085570,0,473974065,85541668,538143,538143,0.25,0.5,1.0,1.0,0.0,0.0,0,0,14.45,-3.37,14.07,-0.06,1.8060666,0,nan,nan,0,3,0,1,10
129880000,1652220204285570,0,473973903,85543958,538134,538134,0.25,0.5,1.0,1.0,0.0,0.0,0,0,14.45,0.55,14.429999,0.08,1.53205,0,nan,nan,0,3,0,1,10
130676000,1652220205085570,0,473974045,85545486,538063,538063,0.25,0.5,1.0,1.0,0.0,0.0,0,0,14.5199995,3.3,14.12,0.089999996,1.3409365,0,nan,nan,0,3,0,1,10
131876000,1652220206285570,0,473974579,85547672,537980,537980,0.25,0.5,1.0,1.0,0.0,0.0,0,0,14.589999,6.29,13.17,0.02,1.1250392,0,nan,nan,0,3,0,1,10
132676000,1652220207085570,0,473975075,85549040,538037,538037,0.25,0.5,1.0,1.0,0.0,0.0,0,0,14.5199995,7.3399997,12.5199995,-0.12,1.0407398,0,nan,nan,0,3,0,1,10
133880000,1652220208285570,0,473975912,85551002,538137,538137,0.25,0.5,1.0,1.0,0.0,0.0,0,0,14.49,7.99,12.08,-0.07,0.9864601,0,nan,nan,0,3,0,1,10
134680000,1652220209085570,0,473976495,85552284,538152,538152,0.25,0.5,1.0,1.0,0.0,0.0,0,0,14.469999,8.099999,12.0,0.0,0.97668624,0,nan,nan,0,3,0,1,10
135880000,1652220210285570,0,473977372,85554203,538159,538159,0.25,0.5,1.0,1.0,0.0,0.0,0,0,14.49,8.09,12.03,0.049999997,0.9787806,0,nan,nan,0,3,0,1,10
136680000,1652220211085570,0,473977954,85555488,538149,538149,0.25,0.5,1.0,1.0,0.0,0.0,0,0,14.509999,8.05,12.099999,0.0,0.98366755,0,nan,nan,0,3,0,1,10
137876000,1652220212285570,0,473978819,85557427,538157,538157,0.25,0.5,1.0,1.0,0.0,0.0,0,0,14.5,7.96,12.139999,-0.049999997,0.9899507,0,nan,nan,0,3,0,1,10
138680000,1652220213085570,0,473979391,85558721,538172,538172,0.25,0.5,1.0,1.0,0.0,0.0,0,0,14.49,7.83,12.179999,-0.03,0.9993755,0,nan,nan,0,3,0,1,10
139880000,1652220214285570,0,473980127,85560757,538224,538224,0.25,0.5,1.0,1.0,0.0,0.0,0,0,14.44,5.37,13.38,-0.02,1.1889182,0,nan,nan,0,3,0,1,10
140680000,1652220215085570,0,473980418,85562235,538172,538172,0.25,0.5,1.0,1.0,0.0,0.0,0,0,14.49,2.6299999,14.24,0.04,1.3875368,0,nan,nan,0,3,0,1,10
141876000,1652220216285570,0,473980476,85564553,538026,538026,0.25,0.5,1.0,1.0,0.0,0.0,0,0,14.599999,-1.37,14.549999,0.11,1.6652186,0,nan,nan,0,3,0,1,10
142676000,1652220217085570,0,473980301,85566089,537990,537990,0.25,0.5,1.0,1.0,0.0,0.0,0,0,14.61,-3.32,14.219999,-0.04,1.800307,0,nan,nan,0,3,0,1,10
143880000,1652220218285570,0,473979848,85568316,538114,538114,0.25,0.5,1.0,1.0,0.0,0.0,0,0,14.5,-4.79,13.69,-0.07,1.9074703,0,nan,nan,0,3,0,1,10
144680000,1652220219085570,0,473979486,85569766,538199,538199,0.25,0.5,1.0,1.0,0.0,0.0,0,0,14.48,-5.16,13.5199995,-0.089999996,1.9353956,0,nan,nan,0,3,0,1,10
145880000,1652220220285570,0,473978918,85571924,538243,538243,0.25,0.5,1.0,1.0,0.0,0.0,0,0,14.48,-5.27,13.49,-0.02,1.9434241,0,nan,nan,0,3,0,1,10
146680000,1652220221085570,0,473978540,85573363,538274,538274,0.25,0.5,1.0,1.0,0.0,0.0,0,0,14.469999,-5.19,13.5,-0.07,1.9376645,0,nan,nan,0,3,0,1,10
147880000,1652220222285570,0,473977980,85575524,538291,538291,0.25,0.5,1.0,1.0,0.0,0.0,0,0,14.46,-5.1099997,13.5,0.0,1.9329522,0,nan,nan,0,3,0,1,10
148676000,1652220223085570,0,473977611,85576965,538279,538279,0.25,0.5,1.0,1.0,0.0,0.0,0,0,14.45,-5.1,13.509999,0.03,1.9320794,0,nan,nan,0,3,0,1,10
149876000,1652220224285570,0,473977061,85579129,538250,538250,0.25,0.5,1.0,1.0,0.0,0.0,0,0,14.44,-4.9,13.57,0.01,1.9172442,0,nan,nan,0,3,0,1,10
150676000,1652220225085570,0,473976755,85580597,538275,538275,0.25,0.5,1.0,1.0,0.0,0.0,0,0,14.389999,-3.4299998,13.99,-0.02,1.8113027,0,nan,nan,0,3,0,1,10
151876000,1652220226285570,0,473976572,85582878,538242,538242,0.25,0.5,1.0,1.0,0.0,0.0,0,0,14.42,0.21,14.42,0.07,1.5561355,0,nan,nan,0,3,0,1,10
152676000,1652220227085570,0,473976675,85584409,538171,538171,0.25,0.5,1.0,1.0,0.0,0.0,0,0,14.469999,2.62,14.24,0.099999994,1.3884094,0,nan,nan,0,3,0,1,10
153876000,1652220228285570,0,473977106,85586636,538107,538107,0.25,0.5,1.0,1.0,0.0,0.0,0,0,14.5,5.0899997,13.559999,0.02,1.2116076,0,nan,nan,0,3,0,1,10
154676000,1652220229085570,0,473977510,85588060,538121,538121,0.25,0.5,1.0,1.0,0.0,0.0,0,0,14.48,5.99,13.179999,-0.06,1.1438888,0,nan,nan,0,3,0,1,10
155876000,1652220230285570,0,473978195,85590144,538151,538151,0.25,0.5,1.0,1.0,0.0,0.0,0,0,14.49,6.52,12.94,-0.02,1.1039207,0,nan,nan,0,3,0,1,10
156676000,1652220231085570,0,473978668,85591521,538165,538165,0.25,0.5,1.0,1.0,0.0,0.0,0,0,14.469999,6.5899997,12.87,0.0,1.0972885,0,nan,nan,0,3,0,1,10
157880000,1652220232285570,0,473979374,85593580,538189,538189,0.25,0.5,1.0,1.0,0.0,0.0,0,0,14.429999,6.47,12.889999,0.049999997,1.105317,0,nan,nan,0,3,0,1,10
158680000,1652220233085570,0,473979840,85594959,538160,538160,0.25,0.5,1.0,1.0,0.0,0.0,0,0,14.469999,6.44,12.98,0.02,1.1096803,0,nan,nan,0,3,0,1,10
159876000,1652220234285570,0,473980533,85597039,538117,538117,0.25,0.5,1.0,1.0,0.0,0.0,0,0,14.5199995,6.3999996,13.049999,0.02,1.1147418,0,nan,nan,0,3,0,1,10
160680000,1652220235085570,0,473980992,85598430,538110,538110,0.25,0.5,1.0,1.0,0.0,0.0,0,0,14.509999,6.3399997,13.049999,0.02,1.1182325,0,nan,nan,0,3,0,1,10
161876000,1652220236285570,0,473981603,85600563,538119,538119,0.25,0.5,1.0,1.0,0.0,0.0,0,0,14.469999,4.46,13.7699995,-0.03,1.2575096,0,nan,nan,0,3,0,1,10
162680000,1652220237085570,0,473981833,85602064,538074,538074,0.25,0.5,1.0,1.0,0.0,0.0,0,0,14.48,1.86,14.34,0.06,1.4414674,0,nan,nan,0,3,0,1,10
163880000,1652220238285570,0,473981806,85604378,537912,537912,0.25,0.5,1.0,1.0,0.0,0.0,0,0,14.57,-2.25,14.38,0.17,1.7259561,0,nan,nan,0,3,0,1,10
164676000,1652220239085570,0,473981564,85605890,537818,537818,0.25,0.5,1.0,1.0,0.0,0.0,0,0,14.61,-4.33,13.94,0.02,1.8718656,0,nan,nan,0,3,0,1,10
165880000,1652220240285570,0,473980987,85608060,537857,537857,0.25,0.5,1.0,1.0,0.0,0.0,0,0,14.549999,-6.08,13.25,-0.07,2.0011945,0,nan,nan,0,3,0,1,10
166676000,1652220241085570,0,473980530,85609455,537935,537935,0.25,0.5,1.0,1.0,0.0,0.0,0,0,14.509999,-6.5299997,12.94,-0.08,2.0380208,0,nan,nan,0,3,0,1,10
167876000,1652220242285570,0,473979810,85611513,538027,538027,0.25,0.5,1.0,1.0,0.0,0.0,0,0,14.48,-6.69,12.84,-0.08,2.0512855,0,nan,nan,0,3,0,1,10
168676000,1652220243085570,0,473979325,85612882,538032,538032,0.25,0.5,1.0,1.0,0.0,0.0,0,0,14.5,-6.7,12.83,-0.02,2.051809,0,nan,nan,0,3,0,1,10
169880000,1652220244285570,0,473978602,85614941,538060,538060,0.25,0.5,1.0,1.0,0.0,0.0,0,0,14.5,-6.64,12.91,0.02,2.0458748,0,nan,nan,0,3,0,1,10
170680000,1652220245085570,0,473978123,85616316,538073,538073,0.25,0.5,1.0,1.0,0.0,0.0,0,0,14.5,-6.6,12.929999,0.02,2.0425587,0,nan,nan,0,3,0,1,10
171880000,1652220246285570,0,473977408,85618380,538108,538108,0.25,0.5,1.0,1.0,0.0,0.0,0,0,14.5,-6.62,12.92,-0.02,2.0444787,0,nan,nan,0,3,0,1,10
172676000,1652220247085570,0,473976931,85619756,538126,538126,0.25,0.5,1.0,1.0,0.0,0.0,0,0,14.48,-6.6,12.889999,-0.02,2.0441296,0,nan,nan,0,3,0,1,10
173880000,1652220248285570,0,473976215,85621817,538123,538123,0.25,0.5,1.0,1.0,0.0,0.0,0,0,14.49,-6.6,12.91,0.04,2.0434313,0,nan,nan,0,3,0,1,10
174680000,1652220249085570,0,473975764,85623205,538161,538161,0.25,0.5,1.0,1.0,0.0,0.0,0,0,14.38,-5.38,13.349999,-0.089999996,1.9542452,0,nan,nan,0,3,0,1,10
175876000,1652220250285570,0,473975401,85625429,538193,538193,0.25,0.5,1.0,1.0,0.0,0.0,0,0,14.36,-0.90999997,14.34,0.04,1.6343263,0,nan,nan,0,3,0,1,10
176676000,1652220251085570,0,473975464,85626959,538112,538112,0.25,0.5,1.0,1.0,0.0,0.0,0,0,14.46,2.6499999,14.19,0.12,1.3859658,0,nan,nan,0,3,0,1,10
177880000,1652220252285570,0,473975995,85629135,537996,537996,0.25,0.5,1.0,1.0,0.0,0.0,0,0,14.559999,6.81,12.87,0.04,1.0836749,0,nan,nan,0,3,0,1,10
178680000,1652220253085570,0,473976548,85630453,538025,538025,0.25,0.5,1.0,1.0,0.0,0.0,0,0,14.53,8.34,11.889999,-0.08,0.9588839,0,nan,nan,0,3,0,1,10
179880000,1652220254285570,0,473977514,85632276,538199,538199,0.25,0.5,1.0,1.0,0.0,0.0,0,0,14.45,9.32,11.07,-0.12,0.8709192,0,nan,nan,0,3,0,1,10
180680000,1652220255085570,0,473978194,85633443,538249,538249,0.25,0.5,1.0,1.0,0.0,0.0,0,0,14.44,9.469999,10.88,-0.08,0.8546877,0,nan,nan,0,3,0,1,10
181880000,1652220256285570,0,473979222,85635186,538281,538281,0.25,0.5,1.0,1.0,0.0,0.0,0,0,14.46,9.46,10.929999,0.02,0.8573057,0,nan,nan,0,3,0,1,10
182680000,1652220257085570,0,473979901,85636357,538267,538267,0.25,0.5,1.0,1.0,0.0,0.0,0,0,14.48,9.37,11.03,0.02,0.86603236,0,nan,nan,0,3,0,1,10
183880000,1652220258285570,0,473980863,85638176,538307,538307,0.25,0.5,1.0,1.0,0.0,0.0,0,0,14.37,7.64,12.16,-0.11,1.0093238,0,nan,nan,0,3,0,1,10
184680000,1652220259085570,0,473981329,85639546,538281,538281,0.25,0.5,1.0,1.0,0.0,0.0,0,0,14.429999,4.93,13.549999,0.11,1.221556,0,nan,nan,0,3,0,1,10
185880000,1652220260285570,0,473981585,85641818,538112,538112,0.25,0.5,1.0,1.0,0.0,0.0,0,0,14.549999,-0.19999999,14.559999,0.19999999,1.5845845,0,nan,nan,0,3,0,1,10
186676000,1652220261085570,0,473981461,85643360,537989,537989,0.25,0.5,1.0,1.0,0.0,0.0,0,0,14.61,-3.12,14.299999,0.13,1.7858208,0,nan,nan,0,3,0,1,10
187876000,1652220262285570,0,473980962,85645571,538017,538017,0.25,0.5,1.0,1.0,0.0,0.0,0,0,14.549999,-5.72,13.37,-0.12,1.9753636,0,nan,nan,0,3,0,1,10
188676000,1652220263085570,0,473980518,85646973,538102,538102,0.25,0.5,1.0,1.0,0.0,0.0,0,0,14.5,-6.48,12.95,-0.17,2.0348792,0,nan,nan,0,3,0,1,10
189876000,1652220264285570,0,473979788,85649025,538198,538198,0.25,0.5,1.0,1.0,0.0,0.0,0,0,14.49,-6.87,12.78,-0.04,2.0643754,0,nan,nan,0,3,0,1,10
190676000,1652220265085570,0,473979291,85650387,538217,538217,0.25,0.5,1.0,1.0,0.0,0.0,0,0,14.5,-6.87,12.75,-0.04,2.0650735,0,nan,nan,0,3,0,1,10
191880000,1652220266285570,0,473978554,85652433,538240,538240,0.25,0.5,1.0,1.0,0.0,0.0,0,0,14.5,-6.75,12.84,-0.02,2.0551252,0,nan,nan,0,3,0,1,10
192680000,1652220267085570,0,473978070,85653803,538265,538265,0.25,0.5,1.0,1.0,0.0,0.0,0,0,14.469999,-6.67,12.84,-0.049999997,2.049889,0,nan,nan,0,3,0,1,10
193880000,1652220268285570,0,473977350,85655860,538270,538270,0.25,0.5,1.0,1.0,0.0,0.0,0,0,14.49,-6.6,12.9,0.0,2.043606,0,nan,nan,0,3,0,1,10
194676000,1652220269085570,0,473976871,85657236,538262,538262,0.25,0.5,1.0,1.0,0.0,0.0,0,0,14.509999,-6.6499996,12.889999,0.03,2.0469222,0,nan,nan,0,3,0,1,10
195880000,1652220270285570,0,473976151,85659294,538317,538317,0.25,0.5,1.0,1.0,0.0,0.0,0,0,14.469999,-6.64,12.87,-0.03,2.0470967,0,nan,nan,0,3,0,1,10
196676000,1652220271085570,0,473975670,85660661,538328,538328,0.25,0.5,1.0,1.0,0.0,0.0,0,0,14.44,-6.66,12.799999,-0.04,2.0504127,0,nan,nan,0,3,0,1,10
197876000,1652220272285570,0,473975035,85662757,538388,538388,0.25,0.5,1.0,1.0,0.0,0.0,0,0,14.349999,-4.44,13.66,0.0,1.88513,0,nan,nan,0,3,0,1,10
198680000,1652220273085570,0,473974821,85664254,538329,538329,0.25,0.5,1.0,1.0,0.0,0.0,0,0,14.38,-1.36,14.309999,0.06,1.6655678,0,nan,nan,0,3,0,1,10
199880000,1652220274285570,0,473974950,85666544,538185,538185,0.25,0.5,1.0,1.0,0.0,0.0,0,0,14.5199995,3.59,14.049999,0.14,1.320516,0,nan,nan,0,3,0,1,10
200680000,1652220275085570,0,473975306,85668002,538096,538096,0.25,0.5,1.0,1.0,0.0,0.0,0,0,14.559999,6.1,13.21,0.099999994,1.1381292,0,nan,nan,0,3,0,1,10
201876000,1652220276285570,0,473976089,85670016,538147,538147,0.25,0.5,1.0,1.0,0.0,0.0,0,0,14.509999,8.05,12.03,-0.06,0.98104954,0,nan,nan,0,3,0,1,10
202676000,1652220277085570,0,473976693,85671277,538211,538211,0.25,0.5,1.0,1.0,0.0,0.0,0,0,14.46,8.559999,11.639999,-0.08,0.9363691,0,nan,nan,0,3,0,1,10
203876000,1652220278285570,0,473977637,85673119,538253,538253,0.25,0.5,1.0,1.0,0.0,0.0,0,0,14.46,8.78,11.46,-0.04,0.9164724,0,nan,nan,0,3,0,1,10
204676000,1652220279085570,0,473978270,85674345,538251,538251,0.25,0.5,1.0,1.0,0.0,0.0,0,0,14.469999,8.7699995,11.509999,0.0,0.91943944,0,nan,nan,0,3,0,1,10
205880000,1652220280285570,0,473979213,85676196,538240,538240,0.25,0.5,1.0,1.0,0.0,0.0,0,0,14.49,8.66,11.62,0.04,0.9299114,0,nan,nan,0,3,0,1,10
206676000,1652220281085570,0,473979836,85677437,538246,538246,0.25,0.5,1.0,1.0,0.0,0.0,0,0,14.5,8.62,11.67,-0.01,0.93427473,0,nan,nan,0,3,0,1,10
207876000,1652220282285570,0,473980689,85679368,538300,538300,0.25,0.5,1.0,1.0,0.0,0.0,0,0,14.389999,6.62,12.78,-0.02,1.092576,0,nan,nan,0,3,0,1,10
208680000,1652220283085570,0,473981068,85680796,538246,538246,0.25,0.5,1.0,1.0,0.0,0.0,0,0,14.429999,3.73,13.96,0.02,1.3095205,0,nan,nan,0,3,0,1,10
209880000,1652220284285570,0,473981206,85683095,538093,538093,0.25,0.5,1.0,1.0,0.0,0.0,0,0,14.559999,-1.09,14.5,0.13,1.6460199,0,nan,nan,0,3,0,1,10
210676000,1652220285085570,0,473981028,85684627,538020,538020,0.25,0.5,1.0,1.0,0.0,0.0,0,0,14.599999,-3.6699998,14.11,0.08,1.8254398,0,nan,nan,0,3,0,1,10
211876000,1652220286285570,0,473980495,85686815,538111,538111,0.25,0.5,1.0,1.0,0.0,0.0,0,0,14.509999,-5.8199997,13.28,-0.17,1.9840903,0,nan,nan,0,3,0,1,10
212680000,1652220287085570,0,473980049,85688210,538221,538221,0.25,0.5,1.0,1.0,0.0,0.0,0,0,14.44,-6.42,12.96,-0.14,2.0308652,0,nan,nan,0,3,0,1,10
213876000,1652220288285570,0,473979334,85690261,538323,538323,0.25,0.5,1.0,1.0,0.0,0.0,0,0,14.429999,-6.68,12.79,-0.02,2.0525072,0,nan,nan,0,3,0,1,10
214680000,1652220289085570,0,473978852,85691627,538329,538329,0.25,0.5,1.0,1.0,0.0,0.0,0,0,14.469999,-6.66,12.84,-0.03,2.0493655,0,nan,nan,0,3,0,1,10
215880000,1652220290285570,0,473978138,85693686,538386,538386,0.25,0.5,1.0,1.0,0.0,0.0,0,0,14.46,-6.5299997,12.92,-0.06,2.0388937,0,nan,nan,0,3,0,1,10
216680000,1652220291085570,0,473977670,85695063,538428,538428,0.25,0.5,1.0,1.0,0.0,0.0,0,0,14.44,-6.44,12.92,-0.049999997,2.0333085,0,nan,nan,0,3,0,1,10
217880000,1652220292285570,0,473976973,85697135,538438,538438,0.25,0.5,1.0,1.0,0.0,0.0,0,0,14.48,-6.43,12.969999,-0.04,2.0313888,0,nan,nan,0,3,0,1,10
218676000,1652220293085570,0,473976509,85698517,538453,538453,0.25,0.5,1.0,1.0,0.0,0.0,0,0,14.45,-6.46,12.94,-0.04,2.033832,0,nan,nan,0,3,0,1,10
219876000,1652220294285570,0,473975841,85700603,538491,538491,0.25,0.5,1.0,1.0,0.0,0.0,0,0,14.4,-5.35,13.37,0.0,1.9516271,0,nan,nan,0,3,0,1,10
220676000,1652220295085570,0,473975530,85702065,538496,538496,0.25,0.5,1.0,1.0,0.0,0.0,0,0,14.38,-3.06,14.04,-0.03,1.7856463,0,nan,nan,0,3,0,1,10
221876000,1652220296285570,0,473975438,85704359,538405,538405,0.25,0.5,1.0,1.0,0.0,0.0,0,0,14.48,1.35,14.4,0.11,1.4767231,0,nan,nan,0,3,0,1,10
222676000,1652220297085570,0,473975631,85705878,538320,538320,0.25,0.5,1.0,1.0,0.0,0.0,0,0,14.549999,3.8899999,14.03,0.08,1.2999212,0,nan,nan,0,3,0,1,10
223876000,1652220298285570,0,473976194,85708048,538328,538328,0.25,0.5,1.0,1.0,0.0,0.0,0,0,14.5,6.21,13.099999,-0.089999996,1.1278317,0,nan,nan,0,3,0,1,10
224676000,1652220299085570,0,473976671,85709420,538394,538394,0.25,0.5,1.0,1.0,0.0,0.0,0,0,14.46,6.92,12.69,-0.06,1.0711086,0,nan,nan,0,3,0,1,10
225876000,1652220300285570,0,473977444,85711427,538441,538441,0.25,0.5,1.0,1.0,0.0,0.0,0,0,14.45,7.2999997,12.5,0.01,1.0421361,0,nan,nan,0,3,0,1,10
226680000,1652220301085570,0,473977973,85712757,538436,538436,0.25,0.5,1.0,1.0,0.0,0.0,0,0,14.469999,7.2999997,12.46,0.04,1.0405653,0,nan,nan,0,3,0,1,10
227880000,1652220302285570,0,473978761,85714754,538447,538447,0.25,0.5,1.0,1.0,0.0,0.0,0,0,14.44,7.2599998,12.5,0.02,1.044405,0,nan,nan,0,3,0,1,10
228680000,1652220303085570,0,473979282,85716088,538439,538439,0.25,0.5,1.0,1.0,0.0,0.0,0,0,14.44,7.2,12.509999,0.02,1.0484192,0,nan,nan,0,3,0,1,10
229880000,1652220304285570,0,473980048,85718104,538404,538404,0.25,0.5,1.0,1.0,0.0,0.0,0,0,14.44,6.5899997,12.86,0.0,1.0971138,0,nan,nan,0,3,0,1,10
230676000,1652220305085570,0,473980462,85719512,538410,538410,0.25,0.5,1.0,1.0,0.0,0.0,0,0,14.4,4.71,13.61,0.04,1.2369148,0,nan,nan,0,3,0,1,10
231876000,1652220306285570,0,473980752,85721770,538318,538318,0.25,0.5,1.0,1.0,0.0,0.0,0,0,14.469999,0.55,14.48,0.089999996,1.5322245,0,nan,nan,0,3,0,1,10
232676000,1652220307085570,0,473980695,85723312,538230,538230,0.25,0.5,1.0,1.0,0.0,0.0,0,0,14.53,-2.04,14.37,0.12,1.7119933,0,nan,nan,0,3,0,1,10
233880000,1652220308285570,0,473980312,85725565,538140,538140,0.25,0.5,1.0,1.0,0.0,0.0,0,0,14.54,-4.71,13.759999,-0.02,1.9006634,0,nan,nan,0,3,0,1,10
234680000,1652220309085570,0,473979937,85727011,538171,538171,0.25,0.5,1.0,1.0,0.0,0.0,0,0,14.509999,-5.58,13.38,-0.07,1.9657643,0,nan,nan,0,3,0,1,10
235880000,1652220310285570,0,473979301,85729126,538217,538217,0.25,0.5,1.0,1.0,0.0,0.0,0,0,14.429999,-6.0299997,13.11,0.0,2.0018926,0,nan,nan,0,3,0,1,10
236680000,1652220311085570,0,473978863,85730521,538213,538213,0.25,0.5,1.0,1.0,0.0,0.0,0,0,14.429999,-6.1099997,13.12,0.03,2.0071287,0,nan,nan,0,3,0,1,10
237880000,1652220312285570,0,473978204,85732622,538161,538161,0.25,0.5,1.0,1.0,0.0,0.0,0,0,14.5,-6.02,13.179999,0.02,1.9991001,0,nan,nan,0,3,0,1,10
238680000,1652220313085570,0,473977771,85734030,538120,538120,0.25,0.5,1.0,1.0,0.0,0.0,0,0,14.509999,-5.96,13.23,-0.01,1.9940387,0,nan,nan,0,3,0,1,10
239880000,1652220314285570,0,473977129,85736145,538091,538091,0.25,0.5,1.0,1.0,0.0,0.0,0,0,14.48,-5.87,13.23,0.049999997,1.988279,0,nan,nan,0,3,0,1,10
240676000,1652220315085570,0,473976705,85737554,538063,538063,0.25,0.5,1.0,1.0,0.0,0.0,0,0,14.46,-5.85,13.21,-0.01,1.9875809,0,nan,nan,0,3,0,1,10
241880000,1652220316285570,0,473976069,85739670,538013,538013,0.25,0.5,1.0,1.0,0.0,0.0,0,0,14.49,-5.8799996,13.25,0.06,1.988628,0,nan,nan,0,3,0,1,10
242680000,1652220317085570,0,473975643,85741082,537994,537994,0.25,0.5,1.0,1.0,0.0,0.0,0,0,14.49,-5.9,13.25,0.03,1.9898498,0,nan,nan,0,3,0,1,10
243880000,1652220318285570,0,473975016,85743202,537991,537991,0.25,0.5,1.0,1.0,0.0,0.0,0,0,14.41,-5.1099997,13.46,-0.08,1.9339993,0,nan,nan,0,3,0,1,10
244680000,1652220319085570,0,473974727,85744674,538011,538011,0.25,0.5,1.0,1.0,0.0,0.0,0,0,14.42,-2.75,14.16,0.08,1.7627826,0,nan,nan,0,3,0,1,10
245876000,1652220320285570,0,473974708,85746975,537894,537894,0.25,0.5,1.0,1.0,0.0,0.0,0,0,14.5199995,2.4099998,14.33,0.13,1.4035938,0,nan,nan,0,3,0,1,10
246680000,1652220321085570,0,473974998,85748463,537774,537774,0.25,0.5,1.0,1.0,0.0,0.0,0,0,14.589999,5.46,13.509999,0.14,1.1864748,0,nan,nan,0,3,0,1,10
247876000,1652220322285570,0,473975765,85750498,537728,537728,0.25,0.5,1.0,1.0,0.0,0.0,0,0,14.589999,8.33,11.969999,-0.02,0.96289814,0,nan,nan,0,3,0,1,10
248680000,1652220323085570,0,473976403,85751734,537795,537795,0.25,0.5,1.0,1.0,0.0,0.0,0,0,14.54,9.2,11.25,-0.07,0.88523096,0,nan,nan,0,3,0,1,10
249876000,1652220324285570,0,473977431,85753486,537925,537925,0.25,0.5,1.0,1.0,0.0,0.0,0,0,14.48,9.67,10.809999,-0.089999996,0.84089965,0,nan,nan,0,3,0,1,10
250676000,1652220325085570,0,473978130,85754633,537962,537962,0.25,0.5,1.0,1.0,0.0,0.0,0,0,14.48,9.69,10.73,-0.01,0.83618724,0,nan,nan,0,3,0,1,10
251876000,1652220326285570,0,473979176,85756359,538008,538008,0.25,0.5,1.0,1.0,0.0,0.0,0,0,14.48,9.59,10.84,-0.02,0.84631014,0,nan,nan,0,3,0,1,10
252680000,1652220327085570,0,473979866,85757517,538053,538053,0.25,0.5,1.0,1.0,0.0,0.0,0,0,14.45,9.65,10.73,-0.02,0.8381071,0,nan,nan,0,3,0,1,10
253880000,1652220328285570,0,473980973,85759148,538042,538042,0.25,0.5,1.0,1.0,0.0,0.0,0,0,14.48,10.719999,9.679999,0.07,0.7344345,0,nan,nan,0,3,0,1,10
254676000,1652220329089570,0,473981769,85760162,538034,538034,0.25,0.5,1.0,1.0,0.0,0.0,0,0,14.509999,11.15,9.26,0.02,0.69324476,0,nan,nan,0,3,0,1,10
255880000,1652220330285570,0,473982987,85761612,538104,538104,0.25,0.5,1.0,1.0,0.0,0.0,0,0,14.49,11.37,8.98,-0.049999997,0.6684611,0,nan,nan,0,3,0,1,10
256680000,1652220331089570,0,473983813,85762571,538139,538139,0.25,0.5,1.0,1.0,0.0,0.0,0,0,14.49,11.389999,8.929999,-0.049999997,0.66462135,0,nan,nan,0,3,0,1,10
257876000,1652220332285570,0,473985041,85763997,538194,538194,0.25,0.5,1.0,1.0,0.0,0.0,0,0,14.45,11.36,8.92,-0.01,0.66549397,0,nan,nan,0,3,0,1,10
258680000,1652220333089570,0,473985864,85764955,538205,538205,0.25,0.5,1.0,1.0,0.0,0.0,0,0,14.469999,11.38,8.95,0.0,0.6663667,0,nan,nan,0,3,0,1,10
259876000,1652220334285570,0,473987091,85766385,538182,538182,0.25,0.5,1.0,1.0,0.0,0.0,0,0,14.49,11.389999,8.97,0.02,0.6670648,0,nan,nan,0,3,0,1,10
260680000,1652220335089570,0,473987916,85767345,538175,538175,0.25,0.5,1.0,1.0,0.0,0.0,0,0,14.469999,11.36,8.94,-0.04,0.6667158,0,nan,nan,0,3,0,1,10
261880000,1652220336285570,0,473989143,85768772,538135,538135,0.25,0.5,1.0,1.0,0.0,0.0,0,0,14.46,11.389999,8.94,0.02,0.665145,0,nan,nan,0,3,0,1,10
262680000,1652220337089570,0,473989968,85769727,538104,538104,0.25,0.5,1.0,1.0,0.0,0.0,0,0,14.46,11.37,8.91,0.04,0.66444683,0,nan,nan,0,3,0,1,10
263880000,1652220338285570,0,473991197,85771151,538038,538038,0.25,0.5,1.0,1.0,0.0,0.0,0,0,14.48,11.41,8.91,0.049999997,0.662876,0,nan,nan,0,3,0,1,10
264680000,1652220339089570,0,473992024,85772107,537999,537999,0.25,0.5,1.0,1.0,0.0,0.0,0,0,14.469999,11.4,8.91,0.03,0.6632251,0,nan,nan,0,3,0,1,10
265880000,1652220340285570,0,473993254,85773529,537931,537931,0.25,0.5,1.0,1.0,0.0,0.0,0,0,14.48,11.42,8.91,0.07,0.66217786,0,nan,nan,0,3,0,1,10
266676000,1652220341089570,0,473994083,85774484,537872,537872,0.25,0.5,1.0,1.0,0.0,0.0,0,0,14.5,11.42,8.91,0.01,0.66252697,0,nan,nan,0,3,0,1,10
267876000,1652220342285570,0,473995318,85775904,537835,537835,0.25,0.5,1.0,1.0,0.0,0.0,0,0,14.5199995,11.49,8.929999,0.07,0.660258,0,nan,nan,0,3,0,1,10
268680000,1652220343089570,0,473996150,85776860,537813,537813,0.25,0.5,1.0,1.0,0.0,0.0,0,0,14.5199995,11.469999,8.889999,0.01,0.6593854,0,nan,nan,0,3,0,1,10
269880000,1652220344285570,0,473997386,85778280,537814,537814,0.25,0.5,1.0,1.0,0.0,0.0,0,0,14.509999,11.45,8.91,0.04,0.6614798,0,nan,nan,0,3,0,1,10
270676000,1652220345089570,0,473998217,85779233,537805,537805,0.25,0.5,1.0,1.0,0.0,0.0,0,0,14.509999,11.45,8.92,0.02,0.6614798,0,nan,nan,0,3,0,1,10
271876000,1652220346285570,0,473999453,85780657,537772,537772,0.25,0.5,1.0,1.0,0.0,0.0,0,0,14.53,11.46,8.91,-0.02,0.6604326,0,nan,nan,0,3,0,1,10
272680000,1652220347089570,0,474000284,85781613,537782,537782,0.25,0.5,1.0,1.0,0.0,0.0,0,0,14.5199995,11.45,8.92,-0.02,0.6614798,0,nan,nan,0,3,0,1,10
273880000,1652220348285570,0,474001520,85783033,537786,537786,0.25,0.5,1.0,1.0,0.0,0.0,0,0,14.509999,11.46,8.87,0.02,0.6588618,0,nan,nan,0,3,0,1,10
274676000,1652220349089570,0,474002351,85783988,537784,537784,0.25,0.5,1.0,1.0,0.0,0.0,0,0,14.509999,11.46,8.91,0.02,0.6607817,0,nan,nan,0,3,0,1,10
275876000,1652220350285570,0,474003587,85785411,537753,537753,0.25,0.5,1.0,1.0,0.0,0.0,0,0,14.53,11.44,8.94,0.01,0.66339964,0,nan,nan,0,3,0,1,10
276676000,1652220351089570,0,474004417,85786368,537752,537752,0.25,0.5,1.0,1.0,0.0,0.0,0,0,14.5199995,11.48,8.929999,0.0,0.66130525,0,nan,nan,0,3,0,1,10
277880000,1652220352285570,0,474005652,85787794,537744,537744,0.25,0.5,1.0,1.0,0.0,0.0,0,0,14.53,11.46,8.95,0.0,0.66305053,0,nan,nan,0,3,0,1,10
278680000,1652220353089570,0,474006480,85788753,537684,537684,0.25,0.5,1.0,1.0,0.0,0.0,0,0,14.33,11.33,8.8,0.35,0.660258,0,nan,nan,0,3,0,1,10
279876000,1652220354285570,0,474007731,85790022,536190,536190,0.25,0.5,1.0,1.0,0.0,0.0,0,0,13.95,12.3,6.6099997,1.8199999,0.49305552,0,nan,nan,0,3,0,1,10
280676000,1652220355089570,0,474008674,85790550,534595,534595,0.25,0.5,1.0,1.0,0.0,0.0,0,0,13.96,13.66,2.9299998,2.08,0.21135937,0,nan,nan,0,3,0,1,10
281880000,1652220356285570,0,474010174,85790459,531926,531926,0.25,0.5,1.0,1.0,0.0,0.0,0,0,14.219999,13.71,-3.76,2.3899999,6.0151024,0,nan,nan,0,3,0,1,10
282676000,1652220357089570,0,474011145,85789910,530061,530061,0.25,0.5,1.0,1.0,0.0,0.0,0,0,14.42,13.099999,-6.06,2.09,5.8494706,0,nan,nan,0,3,0,1,10
283876000,1652220358285570,0,474012555,85788939,528193,528193,0.25,0.5,1.0,1.0,0.0,0.0,0,0,14.5,13.429999,-5.48,0.78999996,5.895373,0,nan,nan,0,3,0,1,10
284676000,1652220359089570,0,474013555,85788455,527903,527903,0.25,0.5,1.0,1.0,0.0,0.0,0,0,14.5199995,14.099999,-3.4399998,0.17999999,6.0435514,0,nan,nan,0,3,0,1,10
285880000,1652220360285570,0,474015107,85788208,527825,527825,0.25,0.5,1.0,1.0,0.0,0.0,0,0,14.53,14.509999,0.42,0.08,0.029146997,0,nan,nan,0,3,0,1,10
286680000,1652220361089570,0,474016153,85788402,527775,527775,0.25,0.5,1.0,1.0,0.0,0.0,0,0,14.549999,14.179999,3.1399999,0.01,0.21781708,0,nan,nan,0,3,0,1,10
287876000,1652220362285570,0,474017620,85789206,527774,527774,0.25,0.5,1.0,1.0,0.0,0.0,0,0,14.559999,12.88,6.83,-0.02,0.48747045,0,nan,nan,0,3,0,1,10
288680000,1652220363089570,0,474018506,85790051,527802,527802,0.25,0.5,1.0,1.0,0.0,0.0,0,0,14.549999,11.509999,8.9,-0.06,0.65781456,0,nan,nan,0,3,0,1,10
289876000,1652220364285570,0,474019621,85791675,527851,527851,0.25,0.5,1.0,1.0,0.0,0.0,0,0,14.53,9.04,11.37,-0.04,0.89884454,0,nan,nan,0,3,0,1,10
290676000,1652220365089570,0,474020209,85792963,527900,527900,0.25,0.5,1.0,1.0,0.0,0.0,0,0,14.5,7.19,12.59,-0.089999996,1.0513862,0,nan,nan,0,3,0,1,10
291880000,1652220366285570,0,474020819,85795085,527963,527963,0.25,0.5,1.0,1.0,0.0,0.0,0,0,14.5,4.0699997,13.929999,-0.049999997,1.2859586,0,nan,nan,0,3,0,1,10
292676000,1652220367089570,0,474021036,85796604,527974,527974,0.25,0.5,1.0,1.0,0.0,0.0,0,0,14.509999,1.88,14.38,-0.02,1.4405948,0,nan,nan,0,3,0,1,10
293880000,1652220368285570,0,474021052,85798912,528015,528015,0.25,0.5,1.0,1.0,0.0,0.0,0,0,14.5,-1.53,14.429999,0.0,1.6767378,0,nan,nan,0,3,0,1,10
294676000,1652220369089570,0,474020858,85800438,528022,528022,0.25,0.5,1.0,1.0,0.0,0.0,0,0,14.509999,-3.79,14.009999,-0.049999997,1.8352135,0,nan,nan,0,3,0,1,10
295880000,1652220370285570,0,474020277,85802580,528043,528043,0.25,0.5,1.0,1.0,0.0,0.0,0,0,14.509999,-6.89,12.7699995,-0.03,2.0657716,0,nan,nan,0,3,0,1,10
296676000,1652220371089570,0,474019705,85803885,528060,528060,0.25,0.5,1.0,1.0,0.0,0.0,0,0,14.5199995,-8.79,11.5199995,-0.02,2.2225022,0,nan,nan,0,3,0,1,10
297880000,1652220372285570,0,474018620,85805546,528082,528082,0.25,0.5,1.0,1.0,0.0,0.0,0,0,14.5199995,-11.19,9.21,-0.03,2.4525368,0,nan,nan,0,3,0,1,10
298680000,1652220373089570,0,474017757,85806438,528095,528095,0.25,0.5,1.0,1.0,0.0,0.0,0,0,14.509999,-12.509999,7.37,-0.07,2.6090925,0,nan,nan,0,3,0,1,10
299876000,1652220374285570,0,474016331,85807376,528112,528112,0.25,0.5,1.0,1.0,0.0,0.0,0,0,14.5199995,-13.87,4.36,0.049999997,2.8370328,0,nan,nan,0,3,0,1,10
300680000,1652220375089570,0,474015304,85807725,528106,528106,0.25,0.5,1.0,1.0,0.0,0.0,0,0,14.54,-14.38,2.1599998,0.0,2.9920177,0,nan,nan,0,3,0,1,10
301880000,1652220376285570,0,474013741,85807796,528124,528124,0.25,0.5,1.0,1.0,0.0,0.0,0,0,14.509999,-14.469999,-1.24,-0.02,3.2274628,0,nan,nan,0,3,0,1,10
302676000,1652220377089570,0,474012705,85807542,528137,528137,0.25,0.5,1.0,1.0,0.0,0.0,0,0,14.5,-14.07,-3.48,-0.01,3.3841932,0,nan,nan,0,3,0,1,10
303880000,1652220378285570,0,474011243,85806731,528138,528138,0.25,0.5,1.0,1.0,0.0,0.0,0,0,14.509999,-12.92,-6.6299996,-0.01,3.615624,0,nan,nan,0,3,0,1,10
304680000,1652220379089570,0,474010353,85805918,528301,528301,0.25,0.5,1.0,1.0,0.0,0.0,0,0,14.23,-11.48,-8.38,-0.71999997,3.7720056,0,nan,nan,0,3,0,1,10
305880000,1652220380285570,0,474009283,85804561,529367,529367,0.25,0.5,1.0,1.0,0.0,0.0,0,0,12.03,-8.74,-8.26,-0.59,3.8987162,0,nan,nan,0,3,0,1,10
306680000,1652220381089570,0,474008678,85803703,529634,529634,0.25,0.5,1.0,1.0,0.0,0.0,0,0,11.19,-8.11,-7.71,-0.08,3.901858,0,nan,nan,0,3,0,1,10
307876000,1652220382285570,0,474007809,85802518,529481,529481,0.25,0.5,1.0,1.0,0.0,0.0,0,0,10.889999,-8.139999,-7.21,0.26999998,3.8666022,0,nan,nan,0,3,0,1,10
308680000,1652220383089570,0,474007211,85801752,529302,529302,0.25,0.5,1.0,1.0,0.0,0.0,0,0,10.929999,-8.309999,-7.0899997,0.13,3.8482764,0,nan,nan,0,3,0,1,10
309880000,1652220384285570,0,474006316,85800629,529266,529266,0.25,0.5,1.0,1.0,0.0,0.0,0,0,10.809999,-8.26,-7.02,-0.03,3.8465312,0,nan,nan,0,3,0,1,10
310680000,1652220385089570,0,474005723,85799874,529281,529281,0.25,0.5,1.0,1.0,0.0,0.0,0,0,10.7699995,-8.13,-7.0899997,0.02,3.8589227,0,nan,nan,0,3,0,1,10
311880000,1652220386285570,0,474004856,85798739,529318,529318,0.25,0.5,1.0,1.0,0.0,0.0,0,0,10.7,-7.96,-7.17,-0.06,3.8751545,0,nan,nan,0,3,0,1,10
312680000,1652220387089570,0,474004283,85797970,529349,529349,0.25,0.5,1.0,1.0,0.0,0.0,0,0,10.67,-7.89,-7.19,0.0,3.8809142,0,nan,nan,0,3,0,1,10
313880000,1652220388285570,0,474003417,85796803,529687,529687,0.25,0.5,1.0,1.0,0.0,0.0,0,0,10.69,-7.87,-7.2,-0.35,3.882834,0,nan,nan,0,3,0,1,10
314680000,1652220389089570,0,474002855,85796047,529598,529598,0.25,0.5,1.0,1.0,0.0,0.0,0,0,10.36,-7.69,-6.94,0.61,3.8758526,0,nan,nan,0,3,0,1,10
315880000,1652220390285570,0,474002010,85794921,528455,528455,0.25,0.5,1.0,1.0,0.0,0.0,0,0,10.83,-8.04,-7.22,1.04,3.873409,0,nan,nan,0,3,0,1,10
316676000,1652220391089570,0,474001417,85794134,527685,527685,0.25,0.5,1.0,1.0,0.0,0.0,0,0,11.099999,-8.28,-7.4199996,0.85999995,3.8725364,0,nan,nan,0,3,0,1,10
317876000,1652220392285570,0,474000521,85792942,526591,526591,0.25,0.5,1.0,1.0,0.0,0.0,0,0,11.25,-8.349999,-7.52,0.97999996,3.874282,0,nan,nan,0,3,0,1,10
318676000,1652220393089570,0,473999912,85792130,525737,525737,0.25,0.5,1.0,1.0,0.0,0.0,0,0,11.389999,-8.45,-7.6299996,1.13,3.876027,0,nan,nan,0,3,0,1,10
319876000,1652220394285570,0,473998989,85790899,524231,524231,0.25,0.5,1.0,1.0,0.0,0.0,0,0,11.66,-8.65,-7.81,1.3299999,3.876027,0,nan,nan,0,3,0,1,10
320676000,1652220395089570,0,473998358,85790054,523151,523151,0.25,0.5,1.0,1.0,0.0,0.0,0,0,11.82,-8.76,-7.94,1.35,3.877947,0,nan,nan,0,3,0,1,10
321880000,1652220396285570,0,473997405,85788782,521579,521579,0.25,0.5,1.0,1.0,0.0,0.0,0,0,11.96,-8.9,-8.01,1.29,3.874282,0,nan,nan,0,3,0,1,10
322676000,1652220397089570,0,473996760,85787921,520512,520512,0.25,0.5,1.0,1.0,0.0,0.0,0,0,12.009999,-8.9,-8.07,1.28,3.877598,0,nan,nan,0,3,0,1,10
323880000,1652220398285570,0,473995796,85786633,518884,518884,0.25,0.5,1.0,1.0,0.0,0.0,0,0,12.08,-8.97,-8.11,1.31,3.8763762,0,nan,nan,0,3,0,1,10
324676000,1652220399089570,0,473995145,85785762,517769,517769,0.25,0.5,1.0,1.0,0.0,0.0,0,0,12.12,-8.97,-8.13,1.38,3.877598,0,nan,nan,0,3,0,1,10
325880000,1652220400285570,0,473994174,85784462,516108,516108,0.25,0.5,1.0,1.0,0.0,0.0,0,0,12.16,-9.0,-8.15,1.3199999,3.8777723,0,nan,nan,0,3,0,1,10
326680000,1652220401089570,0,473993521,85783585,514977,514977,0.25,0.5,1.0,1.0,0.0,0.0,0,0,12.179999,-9.01,-8.2,1.4,3.8803906,0,nan,nan,0,3,0,1,10
327876000,1652220402285570,0,473992546,85782276,513274,513274,0.25,0.5,1.0,1.0,0.0,0.0,0,0,12.219999,-9.09,-8.21,1.4399999,3.8762016,0,nan,nan,0,3,0,1,10
328676000,1652220403089570,0,473991890,85781394,512103,512103,0.25,0.5,1.0,1.0,0.0,0.0,0,0,12.24,-9.07,-8.24,1.4599999,3.8791687,0,nan,nan,0,3,0,1,10
329876000,1652220404285570,0,473990909,85780083,510354,510354,0.25,0.5,1.0,1.0,0.0,0.0,0,0,12.2699995,-9.12,-8.24,1.52,3.8763762,0,nan,nan,0,3,0,1,10
330680000,1652220405089570,0,473990247,85779203,509165,509165,0.25,0.5,1.0,1.0,0.0,0.0,0,0,12.29,-9.16,-8.19,1.48,3.8707912,0,nan,nan,0,3,0,1,10
331880000,1652220406285570,0,473989258,85777896,507402,507402,0.25,0.5,1.0,1.0,0.0,0.0,0,0,12.3,-9.2,-8.19,1.51,3.8690457,0,nan,nan,0,3,0,1,10
332680000,1652220407089570,0,473988591,85777018,506207,506207,0.25,0.5,1.0,1.0,0.0,0.0,0,0,12.309999,-9.179999,-8.2,1.52,3.8700929,0,nan,nan,0,3,0,1,10
333880000,1652220408285570,0,473987601,85775707,504419,504419,0.25,0.5,1.0,1.0,0.0,0.0,0,0,12.33,-9.16,-8.25,1.4699999,3.874631,0,nan,nan,0,3,0,1,10
334680000,1652220409089570,0,473986936,85774821,503196,503196,0.25,0.5,1.0,1.0,0.0,0.0,0,0,12.349999,-9.17,-8.2699995,1.51,3.8749797,0,nan,nan,0,3,0,1,10
335876000,1652220410285570,0,473985949,85773497,501361,501361,0.25,0.5,1.0,1.0,0.0,0.0,0,0,12.37,-9.139999,-8.309999,1.53,3.8796923,0,nan,nan,0,3,0,1,10
336676000,1652220411089570,0,473985285,85772604,500142,500142,0.25,0.5,1.0,1.0,0.0,0.0,0,0,12.38,-9.139999,-8.33,1.52,3.880565,0,nan,nan,0,3,0,1,10
337880000,1652220412285570,0,473984297,85771274,498301,498301,0.25,0.5,1.0,1.0,0.0,0.0,0,0,12.389999,-9.15,-8.36,1.5699999,3.8823104,0,nan,nan,0,3,0,1,10
338680000,1652220413089570,0,473983635,85770373,497056,497056,0.25,0.5,1.0,1.0,0.0,0.0,0,0,12.4,-9.12,-8.389999,1.56,3.8856263,0,nan,nan,0,3,0,1,10
339880000,1652220414285570,0,473982651,85769033,495194,495194,0.25,0.5,1.0,1.0,0.0,0.0,0,0,12.41,-9.139999,-8.42,1.54,3.88615,0,nan,nan,0,3,0,1,10
340680000,1652220415089570,0,473981988,85768131,493927,493927,0.25,0.5,1.0,1.0,0.0,0.0,0,0,12.42,-9.16,-8.42,1.55,3.884754,0,nan,nan,0,3,0,1,10
341880000,1652220416285570,0,473981001,85766789,492217,492217,0.25,0.5,1.0,1.0,0.0,0.0,0,0,12.429999,-9.139999,-8.42,1.16,3.8863246,0,nan,nan,0,3,0,1,10
342680000,1652220417089570,0,473980342,85765893,491426,491426,0.25,0.5,1.0,1.0,0.0,0.0,0,0,12.219999,-9.0,-8.2699995,0.78999996,3.8849282,0,nan,nan,0,3,0,1,10
343876000,1652220418285570,0,473979394,85764609,491198,491198,0.25,0.5,1.0,1.0,0.0,0.0,0,0,11.41,-8.4,-7.71,-0.45,3.8844047,0,nan,nan,0,3,0,1,10
344676000,1652220419089570,0,473978808,85763816,491587,491587,0.25,0.5,1.0,1.0,0.0,0.0,0,0,10.55,-7.79,-7.1099997,-0.45999998,3.8807395,0,nan,nan,0,3,0,1,10
345880000,1652220420285570,0,473978003,85762732,492013,492013,0.25,0.5,1.0,1.0,0.0,0.0,0,0,9.73,-7.22,-6.56,-0.29,3.8791687,0,nan,nan,0,3,0,1,10
346680000,1652220421089570,0,473977491,85762041,492238,492238,0.25,0.5,1.0,1.0,0.0,0.0,0,0,9.41,-6.96,-6.3399997,-0.25,3.880565,0,nan,nan,0,3,0,1,10
347876000,1652220422285570,0,473976757,85761054,492526,492526,0.25,0.5,1.0,1.0,0.0,0.0,0,0,8.96,-6.6299996,-6.0299997,-0.25,3.8798666,0,nan,nan,0,3,0,1,10
348676000,1652220423089570,0,473976286,85760421,492718,492718,0.25,0.5,1.0,1.0,0.0,0.0,0,0,8.599999,-6.37,-5.7599998,-0.19,3.8765507,0,nan,nan,0,3,0,1,10
349880000,1652220424285570,0,473975606,85759509,492471,492471,0.25,0.5,1.0,1.0,0.0,0.0,0,0,8.61,-6.37,-5.7799997,0.61,3.8784707,0,nan,nan,0,3,0,1,10
350680000,1652220425089570,0,473975129,85758870,491840,491840,0.25,0.5,1.0,1.0,0.0,0.0,0,0,9.16,-6.81,-6.14,0.78,3.8749797,0,nan,nan,0,3,0,1,10
351880000,1652220426285570,0,473974377,85757864,491465,491465,0.25,0.5,1.0,1.0,0.0,0.0,0,0,9.389999,-6.98,-6.31,-0.24,3.8763762,0,nan,nan,0,3,0,1,10
352676000,1652220427089570,0,473973882,85757203,491735,491735,0.25,0.5,1.0,1.0,0.0,0.0,0,0,8.99,-6.67,-6.0299997,-0.34,3.8770742,0,nan,nan,0,3,0,1,10
353880000,1652220428285570,0,473973186,85756277,492050,492050,0.25,0.5,1.0,1.0,0.0,0.0,0,0,8.42,-6.2599998,-5.6299996,-0.06,3.8739326,0,nan,nan,0,3,0,1,10
354680000,1652220429089570,0,473972731,85755672,491765,491765,0.25,0.5,1.0,1.0,0.0,0.0,0,0,8.55,-6.3399997,-5.72,0.65999997,3.8749797,0,nan,nan,0,3,0,1,10
355880000,1652220430285570,0,473972008,85754711,490746,490746,0.25,0.5,1.0,1.0,0.0,0.0,0,0,9.49,-7.06,-6.35,0.68,3.8741074,0,nan,nan,0,3,0,1,10
356676000,1652220431089570,0,473971492,85754025,490617,490617,0.25,0.5,1.0,1.0,0.0,0.0,0,0,9.51,-7.06,-6.3599997,-0.32999998,3.874631,0,nan,nan,0,3,0,1,10
357876000,1652220432285570,0,473970754,85753046,491120,491120,0.25,0.5,1.0,1.0,0.0,0.0,0,0,8.83,-6.5699997,-5.91,-0.44,3.874282,0,nan,nan,0,3,0,1,10
358680000,1652220433089570,0,473970291,85752431,491362,491362,0.25,0.5,1.0,1.0,0.0,0.0,0,0,8.4,-6.25,-5.65,-0.12,3.8763762,0,nan,nan,0,3,0,1,10
359880000,1652220434285570,0,473969613,85751530,490852,490852,0.25,0.5,1.0,1.0,0.0,0.0,0,0,8.73,-6.47,-5.83,0.97999996,3.8748055,0,nan,nan,0,3,0,1,10
360676000,1652220435089570,0,473969122,85750877,490041,490041,0.25,0.5,1.0,1.0,0.0,0.0,0,0,9.49,-7.06,-6.3399997,0.85999995,3.873409,0,nan,nan,0,3,0,1,10
361876000,1652220436285570,0,473968352,85749852,489995,489995,0.25,0.5,1.0,1.0,0.0,0.0,0,0,9.4,-6.97,-6.2999997,-0.53,3.8762016,0,nan,nan,0,3,0,1,10
362680000,1652220437089570,0,473967861,85749196,490422,490422,0.25,0.5,1.0,1.0,0.0,0.0,0,0,8.849999,-6.5899997,-5.91,-0.52,3.87306,0,nan,nan,0,3,0,1,10
363880000,1652220438285570,0,473967180,85748290,490736,490736,0.25,0.5,1.0,1.0,0.0,0.0,0,0,8.25,-6.1299996,-5.5299997,0.19,3.8749797,0,nan,nan,0,3,0,1,10
364676000,1652220439089570,0,473966728,85747688,490225,490225,0.25,0.5,1.0,1.0,0.0,0.0,0,0,8.65,-6.42,-5.7999997,1.05,3.875678,0,nan,nan,0,3,0,1,10
365880000,1652220440285570,0,473965985,85746697,489014,489014,0.25,0.5,1.0,1.0,0.0,0.0,0,0,9.8,-7.27,-6.56,0.45999998,3.875329,0,nan,nan,0,3,0,1,10
366680000,1652220441089570,0,473965462,85745999,489187,489187,0.25,0.5,1.0,1.0,0.0,0.0,0,0,9.51,-7.0699997,-6.3799996,-0.58,3.876027,0,nan,nan,0,3,0,1,10
367880000,1652220442285570,0,473964738,85745035,489948,489948,0.25,0.5,1.0,1.0,0.0,0.0,0,0,8.53,-6.33,-5.71,-0.53999996,3.875329,0,nan,nan,0,3,0,1,10
368676000,1652220443089570,0,473964293,85744441,490130,490130,0.25,0.5,1.0,1.0,0.0,0.0,0,0,8.139999,-6.0499997,-5.45,0.17,3.8744562,0,nan,nan,0,3,0,1,10
369876000,1652220444285570,0,473963616,85743536,489054,489054,0.25,0.5,1.0,1.0,0.0,0.0,0,0,9.07,-6.72,-6.06,1.4,3.8758526,0,nan,nan,0,3,0,1,10
370676000,1652220445089570,0,473963100,85742848,488169,488169,0.25,0.5,1.0,1.0,0.0,0.0,0,0,9.96,-7.39,-6.66,0.51,3.8751545,0,nan,nan,0,3,0,1,10
371876000,1652220446285570,0,473962406,85741931,488365,488365,0.25,0.5,1.0,1.0,0.0,0.0,0,0,8.309999,-6.19,-5.52,0.04,3.8699183,0,nan,nan,0,3,0,1,10
372676000,1652220447089570,0,473961987,85741379,488134,488134,0.25,0.5,1.0,1.0,0.0,0.0,0,0,4.38,-3.3899999,-2.78,0.099999994,3.8292522,0,nan,nan,0,3,0,1,10
373880000,1652220448285570,0,473961911,85741300,488121,488121,0.25,0.5,1.0,1.0,0.0,0.0,0,0,0.0,0.0,0.0,-0.02,3.8416443,0,nan,nan,0,3,0,1,10
374680000,1652220449089570,0,473961910,85741300,488118,488118,0.25,0.5,1.0,1.0,0.0,0.0,0,0,0.0,0.0,-0.02,0.0,4.3586106,0,nan,nan,0,3,0,1,10
375880000,1652220450285570,0,473961911,85741300,488119,488119,0.25,0.5,1.0,1.0,0.0,0.0,0,0,0.0,0.0,0.0,0.01,4.3179445,0,nan,nan,0,3,0,1,10
376680000,1652220451089570,0,473961911,85741300,488125,488125,0.25,0.5,1.0,1.0,0.0,0.0,0,0,0.0,0.0,0.0,-0.03,1.619491,0,nan,nan,0,3,0,1,10
377876000,1652220452285570,0,473961910,85741300,488128,488128,0.25,0.5,1.0,1.0,0.0,0.0,0,0,0.0,0.0,0.0,0.049999997,2.762158,0,nan,nan,0,3,0,1,10
