timestamp,roll_commanded,roll_measured,pitch_commanded,pitch_measured,yaw_commanded,yaw_measured,airspeed_commanded,airspeed_measured,angular_velocity.x,angular_velocity.y,angular_velocity.z
2018-10-05 19:42:23.800,-15.9399995804,-10.1209888458,-3.26999998093,-0.92239689827,105.0,119.168876648,16.0,0.0,-0.328,0.078,0.051
2018-10-05 19:42:23.900,-15.7249994278,-10.1209888458,-3.344999909405,-0.92239689827,104.5,119.168876648,16.0,0.0,-0.28,0.023,0.025
2018-10-05 19:42:24.000,-15.164999485,-10.1209888458,-3.5499998331100002,-0.92239689827,103.5,119.168876648,16.0,0.0,-0.145,0.025,0.002
2018-10-05 19:42:24.100,-16.10999965665,-10.1209888458,-3.77499985695,-0.92239689827,101.5,119.168876648,16.0,0.0,-0.178,0.037,0.005
2018-10-05 19:42:24.200,-17.24499988555,-12.867286205300001,-3.929999947545,-1.51577746868,100.0,118.9533843995,16.0,0.0,-0.187,0.008,0.075
2018-10-05 19:42:24.300,-16.75,-15.6135835648,-4.01999998093,-2.10915803909,99.0,118.737892151,16.0,0.0,-0.162,-0.019,0.14
2018-10-05 19:42:24.400,-19.0900001526,-15.6135835648,-4.014999866485,-2.10915803909,95.0,118.737892151,16.0,0.0,-0.044,-0.022,0.174
2018-10-05 19:42:24.500,-21.4300003052,-15.6135835648,-3.96499991417,-2.10915803909,94.5,118.737892151,16.0,0.0,0.041,-0.032,0.232
2018-10-05 19:42:24.600,-24.5599994659,-17.4897174835,-3.76999998093,-2.86817264557,91.0,115.724975586,16.0,0.0,-0.02,-0.047,0.301
2018-10-05 19:42:24.700,-24.496665954633333,-17.4897174835,-3.619999965033333,-2.86817264557,90.33333333333333,115.72497558599999,16.0,0.0,-0.172,-0.09,0.304
2018-10-05 19:42:24.800,-27.25999927525,-17.4897174835,-3.45999991894,-2.86817264557,87.0,115.724975586,16.0,0.0,-0.318,-0.101,0.311
2018-10-05 19:42:24.900,-29.959999084499998,-19.3852157593,-3.26999986172,-3.50648212433,83.5,110.370758057,16.0,0.0,-0.448,-0.1,0.29
2018-10-05 19:42:25.000,-29.634999275200002,-19.3852157593,-3.079999923705,-3.50648212433,82.5,110.370758057,16.0,0.0,-0.484,-0.123,0.247
2018-10-05 19:42:25.100,-30.449999809250002,-19.3852157593,-2.89999997616,-3.50648212433,80.0,110.370758057,16.0,0.0,-0.415,-0.111,0.189
2018-10-05 19:42:25.200,-30.83500003815,-19.3852157593,-2.61499989033,-3.50648212433,77.0,110.370758057,16.0,0.0,-0.415,-0.111,0.189
2018-10-05 19:42:25.300,-33.10499954225,-24.213692665099998,-2.484999895095,-3.42354440689,74.0,107.058265686,16.0,0.0,-0.2635,-0.159,0.16
2018-10-05 19:42:25.400,-35.149999618500004,-29.0421695709,-2.2099999189400004,-3.34060668945,70.5,103.745773315,16.0,0.0,-0.2635,-0.159,0.16
2018-10-05 19:42:25.500,-34.9199981689,-29.0421695709,-2.05999994278,-3.34060668945,70.0,103.745773315,16.0,0.0,-0.194,-0.191,0.191
2018-10-05 19:42:25.600,-37.8266652425,-29.0421695709,-1.5999999443700001,-3.34060668945,64.33333333333333,103.745773315,16.0,0.0,-0.2115,-0.2195,0.22599999999999998
2018-10-05 19:42:25.700,-36.8199996948,-29.0421695709,-1.03999996185,-3.34060668945,63.0,103.745773315,16.0,0.0,-0.2115,-0.2195,0.22599999999999998
2018-10-05 19:42:25.800,-37.6549987793,-34.2661323547,-0.8799999654295001,-1.92180478573,61.0,96.1183700562,16.0,0.0,-0.218,-0.266,0.309
2018-10-05 19:42:25.900,-38.156664530466664,-34.2661323547,-0.6233333051206668,-1.92180478573,58.333333333333336,96.11837005620002,16.0,0.0,-0.1255,-0.299,0.3735
2018-10-05 19:42:26.000,-36.9099979401,-34.2661323547,-0.3049999848005,-1.92180478573,57.5,96.1183700562,16.0,0.0,-0.1255,-0.299,0.3735
2018-10-05 19:42:26.100,-38.31499862675,-35.606678009,-0.03999999910575,-1.841851592065,54.0,91.03712081910001,16.0,0.0,-0.10500000000000001,-0.3195,0.431
2018-10-05 19:42:26.200,-39.3400001526,-36.9472236633,0.389999985695,-1.7618983984,49.0,85.955871582,16.0,0.0,-0.094,-0.356,0.409
2018-10-05 19:42:26.300,-39.9650001526,-36.9472236633,0.5499999821185,-1.7618983984,47.5,85.955871582,16.0,0.0,-0.1,-0.365,0.378
2018-10-05 19:42:26.400,-39.9499988556,-36.9472236633,0.8449999690055,-1.7618983984,45.0,85.955871582,16.0,0.0,-0.142,-0.346,0.342
2018-10-05 19:42:26.500,-41.0749988556,-37.977682113650005,1.149999946356,-1.43357372284,41.5,79.96931076050001,16.0,0.0,-0.108,-0.372,0.288
2018-10-05 19:42:26.600,-41.7900009155,-39.008140564,1.63999998569,-1.10524904728,37.0,73.982749939,16.0,0.0,-0.108,-0.372,0.288
2018-10-05 19:42:26.700,-41.1650009155,-39.008140564,1.78999996185,-1.10524904728,36.5,73.982749939,16.0,0.0,-0.002999999999999999,-0.3865,0.35950000000000004
2018-10-05 19:42:26.800,-42.17999839785,-39.310338974000004,2.04499989748,-0.624379552901,30.0,69.60696411135001,16.0,0.0,-0.002999999999999999,-0.3865,0.35950000000000004
2018-10-05 19:42:26.900,-43.17999839785,-39.612537384,2.229999899865,-0.143510058522,28.0,65.2311782837,16.0,0.0,0.154,-0.381,0.417
2018-10-05 19:42:27.000,-41.724998474100005,-39.612537384,2.38499999046,-0.143510058522,27.5,65.2311782837,16.0,0.0,-0.242,-0.377,0.383
2018-10-05 19:42:27.100,-40.5599975586,-39.612537384,2.58999991417,-0.143510058522,25.0,65.2311782837,16.0,0.0,-0.253,-0.386,0.351
2018-10-05 19:42:27.200,-39.644998550400004,-40.392375946049995,2.67999994755,0.252226404846,24.5,59.244525909450005,16.0,0.0,-0.28,-0.383,0.34
2018-10-05 19:42:27.300,-43.25,-41.1722145081,2.95000004768,0.647962868214,17.0,53.2578735352,16.0,0.0,-0.135,-0.388,0.31
2018-10-05 19:42:27.400,-42.5299987793,-41.1722145081,3.05999994278,0.647962868214,16.5,53.2578735352,16.0,0.0,-0.185,-0.381,0.329
2018-10-05 19:42:27.500,-41.8099975586,-41.1722145081,3.16999983788,0.647962868214,16.0,53.2578735352,16.0,0.0,-0.185,-0.381,0.329
2018-10-05 19:42:27.600,-41.3099975586,-45.227935791,3.62999987602,1.50564146042,11.0,42.198513031,16.0,0.0,0.04,-0.4175,0.3665
2018-10-05 19:42:27.700,-40.38499832155,-45.227935791,3.734999895095,1.50564146042,10.5,42.198513031,16.0,0.0,-0.074,-0.443,0.421
2018-10-05 19:42:27.800,-39.3400001526,-45.227935791,4.05999994278,1.50564146042,7.0,42.198513031,16.0,0.0,-0.104,-0.417,0.405
2018-10-05 19:42:27.900,-38.2449989319,-46.1705322266,4.19499969482,1.53285121918,6.5,32.0993347168,16.0,0.0,-0.104,-0.417,0.405
2018-10-05 19:42:28.000,-36.63499832155,-46.1705322266,4.47000002861,1.53285121918,4.0,32.0993347168,16.0,0.0,-0.1355,-0.435,0.3645
2018-10-05 19:42:28.100,-34.80999946595,-46.1705322266,4.75,1.53285121918,4.0,32.0993347168,16.0,0.0,0.094,-0.455,0.381
2018-10-05 19:42:28.200,-32.02999973295,-46.1705322266,5.019999980925,1.53285121918,3.5,32.0993347168,16.0,0.0,0.225,-0.475,0.396
2018-10-05 19:42:28.300,-28.7949991226,-46.9478034973,5.219999790195001,1.72396457195,2.5,20.7861804962,16.0,0.0,0.182,-0.485,0.408
2018-10-05 19:42:28.400,-24.8699989319,-46.9478034973,5.359999895095,1.72396457195,2.0,20.7861804962,16.0,0.0,0.205,-0.468,0.373
2018-10-05 19:42:28.500,-20.37499904635,-46.9478034973,5.459999799725,1.72396457195,1.5,20.7861804962,16.0,0.0,0.321,-0.487,0.336
2018-10-05 19:42:28.600,-16.296665827433333,-44.05580012003333,5.493333180746667,2.3724050124500002,1.0,12.795432408646667,16.0,0.0,0.321,-0.487,0.336
2018-10-05 19:42:28.700,-7.38999986649,-42.6097984314,5.40000009537,2.6966252327,1.0,8.80005836487,16.0,0.0,0.353,-0.442,0.334
2018-10-05 19:42:28.800,-3.97666660945,-42.6097984314,5.30999994278,2.6966252327,1.0,8.80005836487,16.0,0.0,0.501,-0.36,0.3155
2018-10-05 19:42:28.900,2.50999999046,-42.6097984314,5.11999988556,2.6966252327,1.0,8.80005836487,16.0,0.0,0.501,-0.36,0.3155
2018-10-05 19:42:29.000,5.316666523613333,-34.704864501933336,4.946666558583334,4.355216185253334,1.0,0.6903435389233336,16.0,0.0,0.711,-0.29300000000000004,0.2305
2018-10-05 19:42:29.100,8.644999742485,-30.7523975372,4.664999723435,5.18451166153,1.0,-3.36451387405,16.0,0.0,0.658,-0.246,0.19
2018-10-05 19:42:29.200,12.3299999237,-30.7523975372,4.24499988556,5.18451166153,1.0,-3.36451387405,16.0,0.0,0.594,-0.18,0.15
2018-10-05 19:42:29.300,16.86499881745,-30.7523975372,3.50499999523,5.18451166153,2.0,-3.36451387405,16.0,0.0,0.554,-0.134,0.048
2018-10-05 19:42:29.400,17.9200000763,-30.7523975372,3.25,5.18451166153,2.0,-3.36451387405,16.0,0.0,0.554,-0.134,0.048
2018-10-05 19:42:29.500,20.6899986267,-13.6981229782,2.37999987602,8.15944671631,2.0,-9.07053089142,16.0,0.0,0.6174999999999999,-0.083,0.0175
2018-10-05 19:42:29.600,21.3299999237,-13.6981229782,2.03999990225,8.15944671631,2.0,-9.07053089142,16.0,0.0,0.788,-0.024,0.006
2018-10-05 19:42:29.700,22.5699996948,-13.6981229782,1.06999993324,8.15944671631,3.0,-9.07053089142,16.0,0.0,0.774,0.005,0.032
2018-10-05 19:42:29.800,23.0,-6.486099094147001,0.479999989271,8.295499801635,3.0,-9.462822914125,16.0,0.0,0.62,0.024,0.042
2018-10-05 19:42:29.900,23.0199995041,0.725924789906,0.19999999552955,8.43155288696,3.0,-9.85511493683,16.0,0.0,0.445,0.042,0.056
2018-10-05 19:42:30.000,22.984999656699998,0.725924789906,-0.3249999918045,8.43155288696,4.0,-9.85511493683,16.0,0.0,0.487,0.066,0.041
2018-10-05 19:42:30.100,22.749999046299997,0.725924789906,-0.7999999821185,8.43155288696,4.0,-9.85511493683,16.0,0.0,0.487,0.066,0.041
2018-10-05 19:42:30.200,22.3949995041,6.144233852603,-1.214999973775,7.80703830719,4.0,-10.631151676165,16.0,0.0,0.29,0.0735,0.0355
2018-10-05 19:42:30.300,21.9299993515,11.5625429153,-1.584999978545,7.18252372742,4.5,-11.4071884155,16.0,0.0,0.29,0.0735,0.0355
2018-10-05 19:42:30.400,20.9200000763,11.5625429153,-2.0949999094000002,7.18252372742,5.0,-11.4071884155,16.0,0.0,0.1555,0.0555,-0.0255
2018-10-05 19:42:30.500,20.47000026705,11.5625429153,-2.264999985695,7.18252372742,5.0,-11.4071884155,16.0,0.0,0.157,0.065,-0.014
2018-10-05 19:42:30.600,19.61999988555,14.0418143272,-2.59500002861,6.28987360001,5.0,-11.6066446304,16.0,0.0,-0.001,0.068,-0.03
2018-10-05 19:42:30.700,18.86999988555,16.5210857391,-2.8849999904650003,5.3972234726,5.0,-11.8061008453,16.0,0.0,0.048,0.12,-0.149
2018-10-05 19:42:30.800,18.2150001526,16.5210857391,-3.125,5.3972234726,6.0,-11.8061008453,16.0,0.0,-0.009,0.115,-0.209
2018-10-05 19:42:30.900,17.52999973295,16.5210857391,-3.304999947545,5.3972234726,6.0,-11.8061008453,16.0,0.0,-0.039,0.13,-0.277
2018-10-05 19:42:31.000,16.7849998474,16.5210857391,-3.3849998712550002,5.3972234726,6.0,-11.8061008453,16.0,0.0,0.003,0.113,-0.279
2018-10-05 19:42:31.100,16.4200000763,17.7477321625,-3.38999986649,0.90748488903,6.0,-7.83254766464,16.0,0.0,0.003,0.113,-0.279
2018-10-05 19:42:31.200,14.613333384166665,17.7477321625,-3.1766665776600003,0.90748488903,6.0,-7.83254766464,15.993333180733336,0.0,0.065,0.032,-0.097
2018-10-05 19:42:31.300,12.8699998856,17.7477321625,-3.02999997139,0.90748488903,6.0,-7.83254766464,15.9899997711,0.0,0.026,0.004,-0.048
2018-10-05 19:42:31.400,12.25999975205,17.7477321625,-2.96499991417,0.90748488903,6.0,-7.83254766464,15.9899997711,0.0,-0.177,0.036,-0.051
2018-10-05 19:42:31.500,10.744999885544999,18.839012146,-2.789999842645,-0.655590772629,6.0,-6.21794843674,15.994999885550001,0.0,-0.152,0.029,-0.067
2018-10-05 19:42:31.600,9.23999977112,18.839012146,-2.5499998331100002,-0.655590772629,6.0,-6.21794843674,16.0,0.0,-0.169,0.024,-0.091
2018-10-05 19:42:31.700,7.99499964714,18.839012146,-2.31500005722,-0.655590772629,5.0,-6.21794843674,16.0,0.0,-0.169,0.024,-0.091
2018-10-05 19:42:31.800,6.21499991417,18.839012146,-2.060000002385,-0.655590772629,5.0,-6.21794843674,16.0,0.0,-0.189,0.002,-0.0745
2018-10-05 19:42:31.900,5.07999992371,16.9544682503,-1.92999994755,-1.1515493392945,5.0,-5.46867156029,16.0,0.0,-0.284,-1.02870331128e-17,-0.084
2018-10-05 19:42:32.000,1.41499990225,15.0699243546,-1.44499993324,-1.64750790596,3.5,-4.71939468384,16.0,0.0,-0.332,-1.56754790291e-17,-0.128
2018-10-05 19:42:32.100,-1.8933333158466665,15.0699243546,-1.0966666340840001,-1.6475079059600002,2.0,-4.71939468384,16.0,0.0,-0.333,0.003,-0.157
2018-10-05 19:42:32.200,-4.359999895095,15.0699243546,-0.8349999785425,-1.64750790596,1.0,-4.71939468384,15.994999885550001,0.0,-0.333,0.003,-0.157
2018-10-05 19:42:32.300,-7.059999942779999,9.09715843201,-0.5199999809265,-2.33702993393,0.0,-2.26670360565,15.9899997711,0.0,-0.271,-0.0225,-0.094
2018-10-05 19:42:32.400,-8.77999973297,9.09715843201,-0.0599999986589,-2.33702993393,0.0,-2.26670360565,15.9899997711,0.0,-0.318,-0.05,-0.051
2018-10-05 19:42:32.500,-13.094999790185,9.09715843201,0.07499999739204999,-2.33702993393,-2.5,-2.26670360565,15.994999885550001,0.0,-0.306,-0.071,-0.029
2018-10-05 19:42:32.600,-18.169999440533335,9.09715843201,0.37666665017566664,-2.33702993393,-5.666666666666667,-2.26670360565,16.0,0.0,-0.414,-0.074,0.019
2018-10-05 19:42:32.700,-21.4599990845,1.76129150391,0.669999957085,-1.32750368118,-8.0,-1.26223433018,16.0,0.0,-0.513,-0.071,0.029
2018-10-05 19:42:32.800,-21.799999237050002,1.76129150391,0.759999960661,-1.32750368118,-8.0,-1.26223433018,16.0,0.0,-0.513,-0.071,0.029
2018-10-05 19:42:32.900,-30.0100002289,1.76129150391,1.03999996185,-1.32750368118,-14.0,-1.26223433018,16.0,0.0,-0.492,-0.067,0.033
2018-10-05 19:42:33.000,-30.24499988555,1.76129150391,1.124999940395,-1.32750368118,-14.5,-1.26223433018,16.0,0.0,-0.48350000000000004,-0.087,0.10600000000000001
2018-10-05 19:42:33.100,-30.5549993515,-9.23113059998,1.285000026225,0.0825668498874,-15.5,-2.89901328087,16.0,0.0,-0.517,-0.098,0.14
2018-10-05 19:42:33.200,-35.4199981689,-9.23113059998,1.5,0.0825668498874,-21.0,-2.89901328087,16.0,0.0,-0.459,-0.104,0.171
2018-10-05 19:42:33.300,-35.34499931335,-12.56946897509,1.57999998331,0.4593519829212,-21.5,-4.108215212825,16.0,0.0,-0.516,-0.114,0.188
2018-10-05 19:42:33.400,-36.53499984745,-15.9078073502,1.724999964235,0.836137115955,-23.5,-5.31741714478,15.9899997711,0.0,-0.516,-0.114,0.188
2018-10-05 19:42:33.500,-37.53000068665,-15.9078073502,1.8599999547000001,0.836137115955,-25.5,-5.31741714478,15.9899997711,0.0,-0.493,-0.119,0.2125
2018-10-05 19:42:33.600,-39.52499961855,-20.22918939595,2.0149999260900002,1.0643001496775,-29.5,-7.330542087555,15.994999885550001,0.0,-0.493,-0.119,0.2125
2018-10-05 19:42:33.700,-41.4499988556,-24.5505714417,2.194999933245,1.2924631834,-33.5,-9.34366703033,16.0,0.0,-0.4455,-0.1275,0.23
2018-10-05 19:42:33.800,-40.75999832155,-24.5505714417,2.39999997616,1.2924631834,-34.5,-9.34366703033,16.0,0.0,-0.316,-0.122,0.241
2018-10-05 19:42:33.900,-42.24999809265,-24.5505714417,2.62999999523,1.2924631834,-38.0,-9.34366703033,15.994999885550001,0.0,-0.21,-0.139,0.258
2018-10-05 19:42:34.000,-43.76499938965,-24.5505714417,2.8849999904650003,1.2924631834,-41.5,-9.34366703033,15.9899997711,0.0,-0.21,-0.139,0.258
2018-10-05 19:42:34.100,-44.04999923705,-28.8044776917,3.159999966625,1.0930733978734999,-44.0,-13.316030025465,15.994999885550001,0.0,-0.08,-0.1945,0.2875
2018-10-05 19:42:34.200,-43.8699989319,-33.0583839417,3.5,0.893683612347,-47.0,-17.2883930206,16.0,0.0,-0.08,-0.1945,0.2875
2018-10-05 19:42:34.300,-43.33999824525,-33.0583839417,3.58499991894,0.893683612347,-47.5,-17.2883930206,16.0,0.0,-0.006,-0.225,0.343
2018-10-05 19:42:34.400,-43.8999977112,-33.4005661011,3.699999928475,0.7956165969375,-51.5,-21.0949335098,15.994999885550001,0.0,-0.194,-0.2525,0.403
2018-10-05 19:42:34.500,-44.8249988556,-33.7427482605,3.78499996662,0.697549581528,-56.0,-24.901473999,15.9899997711,0.0,-0.346,-0.27,0.439
2018-10-05 19:42:34.600,-44.829998016350004,-33.7427482605,3.874999880795,0.697549581528,-57.5,-24.901473999,15.994999885550001,0.0,-0.363,-0.295,0.435
2018-10-05 19:42:34.700,-44.6149978638,-36.7222213745,4.009999871255,0.279410324991,-61.0,-29.344085693350003,16.0,0.0,-0.363,-0.295,0.435
2018-10-05 19:42:34.800,-43.579998016350004,-39.7016944885,4.17999982834,-0.138728931546,-61.5,-33.7866973877,16.0,0.0,-0.22599999999999998,-0.3135,0.385
2018-10-05 19:42:34.900,-43.954998016350004,-39.7016944885,4.419999837875,-0.138728931546,-65.0,-33.7866973877,16.0,0.0,-0.141,-0.353,0.327
2018-10-05 19:42:35.000,-44.3199996948,-39.7016944885,4.82999992371,-0.138728931546,-69.0,-33.7866973877,16.0,0.0,-0.127,-0.364,0.334
2018-10-05 19:42:35.100,-43.789999643933335,-43.07955932619999,4.926666418713333,-0.381812155247,-69.33333333333333,-42.8714370728,16.0,0.0,-0.078,-0.381,0.323
2018-10-05 19:42:35.200,-44.2299995422,-43.0795593262,5.36999988556,-0.381812155247,-75.0,-42.8714370728,16.0,0.0,-0.078,-0.381,0.323
2018-10-05 19:42:35.300,-44.6399993896,-43.0795593262,5.61999988556,-0.381812155247,-79.0,-42.8714370728,15.9899997711,0.0,0.05,-0.385,0.374
2018-10-05 19:42:35.400,-43.92000007625,-43.1785335541,5.73499965668,-0.2485113069415,-79.5,-48.3221817017,15.9899997711,0.0,0.138,-0.40249999999999997,0.43
2018-10-05 19:42:35.500,-42.3099994659,-43.277507782,5.96499991417,-0.115210458636,-80.5,-53.7729263306,15.9899997711,0.0,0.005,-0.414,0.465
2018-10-05 19:42:35.600,-42.60499954225,-43.277507782,6.20499992371,-0.115210458636,-84.0,-53.7729263306,15.994999885550001,0.0,-0.102,-0.417,0.416
2018-10-05 19:42:35.700,-42.8799991608,-43.277507782,6.439999818805,-0.115210458636,-87.5,-53.7729263306,16.0,0.0,-0.121,-0.428,0.384
2018-10-05 19:42:35.800,-39.7599983215,-43.277507782,6.76999998093,-0.115210458636,-89.0,-53.7729263306,16.0,0.0,-0.102,-0.451,0.349
2018-10-05 19:42:35.900,-39.19999885555,-44.3538284302,6.889999866485001,-0.162489235401,-90.0,-68.799331665,16.0,0.0,-0.041,-0.449,0.335
2018-10-05 19:42:36.000,-36.69333140053333,-44.3538284302,7.10999981562,-0.162489235401,-91.66666666666667,-68.799331665,16.0,0.0,-0.101,-0.484,0.337
2018-10-05 19:42:36.100,-36.9149990082,-45.1346092224,7.240000009535001,0.4106902182105,-95.0,-73.29813003539999,16.0,0.0,-0.065,-0.443,0.319
2018-10-05 19:42:36.200,-36.8150005341,-45.9153900146,7.414999961855,0.983869671822,-98.5,-77.7969284058,16.0,0.0,0.074,-0.481,0.27
2018-10-05 19:42:36.300,-35.284997940050005,-45.9153900146,7.559999942779999,0.983869671822,-102.0,-77.7969284058,16.0,0.0,0.178,-0.473,0.294
2018-10-05 19:42:36.400,-33.55499839785,-45.9153900146,7.634999752044999,0.983869671822,-103.0,-77.7969284058,16.0,0.0,0.167,-0.458,0.332
2018-10-05 19:42:36.500,-30.40999889375,-44.9681587219,7.71999979019,1.997806966306,-103.5,-83.8139343262,16.0,0.0,0.162,-0.462,0.339
2018-10-05 19:42:36.600,-29.7699995041,-44.0209274292,7.78499984741,3.01174426079,-106.0,-89.8309402466,16.0,0.0,0.296,-0.479,0.347
2018-10-05 19:42:36.700,-28.98999881745,-44.0209274292,7.75,3.01174426079,-108.5,-89.8309402466,16.0,0.0,0.215,-0.448,0.379
2018-10-05 19:42:36.800,-26.2799987793,-44.0209274292,7.55999994278,3.01174426079,-112.0,-89.8309402466,16.0,0.0,0.364,-0.428,0.357
2018-10-05 19:42:36.900,-24.11499881745,-41.41658973695,7.389999866485001,3.875355362895,-112.0,-96.4188652038,16.0,0.0,0.246,-0.394,0.389
2018-10-05 19:42:37.000,-20.464999198900003,-38.8122520447,7.00499987602,4.738966465,-113.0,-103.006790161,16.0,0.0,0.346,-0.362,0.387
2018-10-05 19:42:37.100,-17.553332964566668,-38.8122520447,6.62333313624,4.738966465,-114.0,-103.00679016099998,16.0,0.0,0.328,-0.314,0.351
2018-10-05 19:42:37.200,-12.0399999619,-38.8122520447,5.86999988556,4.738966465,-115.0,-103.006790161,15.9899997711,0.0,0.133,-0.338,0.233
2018-10-05 19:42:37.300,-8.07999992371,-35.89067268375,5.254999876019999,5.553396463395,-116.0,-108.85075759899999,15.9899997711,0.0,0.329,-0.272,0.233
2018-10-05 19:42:37.400,-6.044999837875,-32.9690933228,4.9049997329699995,6.36782646179,-116.0,-114.694725037,15.9899997711,0.0,0.314,-0.251,0.195
2018-10-05 19:42:37.500,-2.244999989867,-32.9690933228,4.139999985695,6.36782646179,-116.0,-114.694725037,15.9899997711,0.0,0.468,-0.21,0.181
2018-10-05 19:42:37.600,1.0549999624495,-32.9690933228,3.26499986649,6.36782646179,-116.0,-114.694725037,15.9899997711,0.0,0.626,-0.163,0.336
2018-10-05 19:42:37.700,3.83999991417,-32.9690933228,2.31499993801,6.36782646179,-116.0,-114.694725037,15.9899997711,0.0,0.921,-0.085,0.413
2018-10-05 19:42:37.800,6.099999666215,-22.5522899628,1.3599999845015,7.55996847153,-116.0,-122.433982849,15.9899997711,0.0,0.921,-0.085,0.413
2018-10-05 19:42:37.900,7.989999532700001,-22.5522899628,0.46499997843074004,7.55996847153,-116.0,-122.433982849,16.0,0.0,0.7055,-0.0615,0.234
2018-10-05 19:42:38.000,9.544999599475,-22.5522899628,-0.4749999940395,7.55996847153,-116.0,-122.433982849,16.0,0.0,0.686,-0.01,0.089
2018-10-05 19:42:38.100,10.5799999237,-14.599835634245,-1.444999963046,7.336975574495,-116.0,-125.119716644,16.0,0.0,0.556,9.062386313690001e-18,0.074
2018-10-05 19:42:38.200,11.2049999237,-6.64738130569,-2.42499989271,7.11398267746,-116.0,-127.805450439,16.0,0.0,0.547,0.058,0.057
2018-10-05 19:42:38.300,11.509999911,-6.64738130569,-3.226666529973333,7.11398267746,-116.0,-127.80545043900001,16.0,0.0,0.425,0.076,-0.018
2018-10-05 19:42:38.400,11.6300001144,-6.64738130569,-3.8599998951,7.11398267746,-116.0,-127.805450439,16.0,0.0,0.425,0.076,-0.018
2018-10-05 19:42:38.500,11.4249997139,2.25886511803,-5.21999979019,6.04156208038,-115.0,-128.516723633,16.0,0.0,0.247,0.07400000000000001,-0.0495
2018-10-05 19:42:38.600,11.0450000763,2.25886511803,-6.115000009535001,6.04156208038,-115.0,-128.516723633,16.0,0.0,0.177,0.131,-0.049
2018-10-05 19:42:38.700,10.554999828349999,2.25886511803,-6.90999984741,6.04156208038,-115.0,-128.516723633,16.0,0.0,0.097,0.129,-0.02
2018-10-05 19:42:38.800,10.279999733,7.02466630936,-7.25999975204,3.5660674572,-115.0,-128.017944336,16.0,0.0,0.097,0.129,-0.02
2018-10-05 19:42:38.900,9.460000038143333,7.02466630936,-8.04999955495,3.5660674572000004,-115.0,-128.017944336,16.0,0.0,0.1555,0.125,-0.0395
2018-10-05 19:42:39.000,8.72999954224,8.48462557793,-8.51999950409,2.367904365065,-115.0,-127.936187744,16.0,0.0,0.1555,0.125,-0.0395
2018-10-05 19:42:39.100,8.344999790195,9.9445848465,-8.61499977112,1.16974127293,-115.0,-127.854431152,16.0,0.0,0.145,0.141,-0.038
2018-10-05 19:42:39.200,7.575000047685,9.9445848465,-8.764999866484999,1.16974127293,-115.0,-127.854431152,16.0,0.0,0.20350000000000001,0.139,0.014499999999999999
2018-10-05 19:42:39.300,6.46999979019,9.9445848465,-8.80000019073,1.16974127293,-115.0,-127.854431152,16.0,0.0,-0.103,0.106,-1.2981256071e-17
2018-10-05 19:42:39.400,6.019999742505,12.5506916046,-8.809999942775,-1.2269974947,-115.0,-128.523284912,16.0,0.0,0.068,0.101,-1.23689326714e-17
2018-10-05 19:42:39.500,4.97499990463,12.5506916046,-8.859999656675,-1.2269974947,-115.0,-128.523284912,16.0,0.0,0.076,0.142,0.009
2018-10-05 19:42:39.600,3.925000071525,12.5506916046,-8.884999752045001,-1.2269974947,-115.5,-128.523284912,16.0,0.0,0.189,0.152,-0.014
2018-10-05 19:42:39.700,3.085000038145,12.5506916046,-8.754999637605,-1.2269974947,-116.0,-128.523284912,16.0,0.0,-0.148,0.079,-0.031
2018-10-05 19:42:39.800,1.81999993324,12.5506916046,-8.5,-1.2269974947,-116.0,-128.523284912,16.0,0.0,-0.368,0.047,-0.054
2018-10-05 19:42:39.900,1.2799999713885,11.9710245132,-8.480000019075,-4.55849838257,-116.0,-128.99256897,16.0,0.0,-0.416,0.116,-0.086
2018-10-05 19:42:40.000,0.3299999795855,11.9710245132,-8.389999866490001,-4.55849838257,-116.0,-128.99256897,16.0,0.0,-0.415,0.117,-0.057
2018-10-05 19:42:40.100,-0.35999999195345,11.9710245132,-8.23499965668,-4.55849838257,-116.0,-128.99256897,16.0,0.0,-0.459,0.057,-0.082
2018-10-05 19:42:40.200,-0.864999949934,8.24621224401,-8.039999723434999,-5.5500822067249995,-116.0,-128.485927582,16.0,0.0,-0.104,0.032,-0.098
2018-10-05 19:42:40.300,-1.53999996185,4.52139997482,-7.71000003815,-6.54166603088,-117.0,-127.979286194,16.0,0.0,0.11,0.041,-0.086
2018-10-05 19:42:40.400,-2.00999999046,4.52139997482,-7.3799996376,-6.54166603088,-117.0,-127.979286194,16.0,0.0,-0.036,0.004,-0.046
2018-10-05 19:42:40.500,-2.3233333428666665,4.52139997482,-7.1333330472266665,-6.541666030879999,-117.0,-127.979286194,16.0,0.0,-0.08,0.008,-9.79717439318e-19
2018-10-05 19:42:40.600,-2.89999985695,3.55753064156,-6.61999988556,-7.40065002441,-117.0,-126.755851746,16.0,0.0,-0.098,-0.024,0.046
2018-10-05 19:42:40.700,-3.079999923705,3.55753064156,-6.39999985695,-7.40065002441,-117.0,-126.755851746,16.0,0.0,-0.099,-0.021,0.055
2018-10-05 19:42:40.800,-3.40999996662,3.55753064156,-5.9549999237049995,-7.40065002441,-117.0,-126.755851746,16.0,0.0,-0.165,-0.018,0.049
2018-10-05 19:42:40.900,-3.5799999237050004,3.55753064156,-5.490000009535001,-7.40065002441,-117.5,-126.755851746,16.0,0.0,-0.165,-0.018,0.049
2018-10-05 19:42:41.000,-3.5799999237050004,1.9681159555935,-5.004999876019999,-7.1737787723499995,-118.0,-127.357147217,16.0,0.0,-0.181,-0.028000000000000004,0.0185
2018-10-05 19:42:41.100,-3.449999928475,0.378701269627,-4.504999876019999,-6.94690752029,-118.0,-127.958442688,16.0,0.0,-0.091,-0.052,-0.022
2018-10-05 19:42:41.200,-3.2299998998649997,0.378701269627,-4.0049999952299995,-6.94690752029,-118.0,-127.958442688,16.0,0.0,-0.022,-0.052,-0.04
2018-10-05 19:42:41.300,-2.9666665395133336,0.378701269627,-3.4799999396000003,-6.94690752029,-118.0,-127.958442688,16.0,0.0,0.005,-0.061,0.006
2018-10-05 19:42:41.400,-2.6099998951,-0.610686182976,-2.9399998188,-5.99057865143,-118.0,-127.797210693,16.0,0.0,0.005,-0.061,0.006
2018-10-05 19:42:41.500,-2.23000001907,-0.610686182976,-2.5,-5.99057865143,-118.0,-127.797210693,16.0,0.0,-0.1015,-0.044,0.0095
2018-10-05 19:42:41.600,-2.07499998808,-0.610686182976,-2.289999961855,-5.99057865143,-118.0,-127.797210693,16.0,0.0,-0.118,-0.081,0.004
2018-10-05 19:42:41.700,-1.714999973775,-0.610686182976,-1.909999966625,-5.99057865143,-118.0,-127.797210693,16.0,0.0,0.006,-0.072,0.038
2018-10-05 19:42:41.800,-1.32999998331,-0.610686182976,-1.5949999690049999,-5.99057865143,-118.0,-127.797210693,16.0,0.0,0.14,-0.056,0.066
2018-10-05 19:42:41.900,-0.9349999725795,-1.50120413303,-1.28499996662,-4.77351951599,-118.5,-128.369338989,16.0,0.0,0.104,-0.042,0.071
2018-10-05 19:42:42.000,-0.524999976158,-1.50120413303,-0.9099999964245,-4.77351951599,-119.0,-128.369338989,16.0,0.0,-0.045,-0.053,0.053
2018-10-05 19:42:42.100,0.140000000596,-1.50120413303,-0.280000001192,-4.77351951599,-119.0,-128.369338989,16.0,0.0,-0.054,-0.072,0.03
2018-10-05 19:42:42.200,0.35000000149,-1.50120413303,-0.11000000126655002,-4.77351951599,-119.0,-128.369338989,16.0,0.0,-0.172,-0.073,0.029
2018-10-05 19:42:42.300,0.7233333190273333,-1.37975668907,0.18333332488926668,-3.66405153275,-119.0,-129.629943848,16.0,0.0,-0.044,-0.099,0.035
2018-10-05 19:42:42.400,1.52999997139,-1.37975668907,0.740000009537,-3.66405153275,-118.0,-129.629943848,16.0,0.0,-0.044,-0.099,0.035
2018-10-05 19:42:42.500,2.16999983788,-1.37975668907,0.969999969006,-3.66405153275,-118.0,-129.629943848,16.0,0.0,0.0505,-0.1225,0.0685
2018-10-05 19:42:42.600,2.449999928475,-1.195290386675,1.059999972583,-2.550290048125,-118.0,-130.2990493775,16.0,0.0,-0.033,-0.124,0.083
2018-10-05 19:42:42.700,3.110000014305,-1.01082408428,1.1799999475499998,-1.4365285635,-118.0,-130.968154907,16.0,0.0,-0.191,-0.143,0.061
2018-10-05 19:42:42.800,3.820000052455,-1.01082408428,1.199999928475,-1.4365285635,-118.0,-130.968154907,16.0,0.0,-0.139,-0.131,0.063
2018-10-05 19:42:42.900,4.4333333969133335,-1.01082408428,1.14999993642,-1.4365285635000002,-118.0,-130.968154907,16.0,0.0,-0.139,-0.131,0.063
2018-10-05 19:42:43.000,5.379999876019999,-1.6128109097449999,1.029999941586,-0.2882662415505,-118.0,-131.800552368,16.0,0.0,0.16,-0.055,0.044
2018-10-05 19:42:43.100,6.179999828334999,-2.21479773521,0.9399999678135,0.859996080399,-118.0,-132.632949829,16.0,0.0,0.16,-0.055,0.044
2018-10-05 19:42:43.200,6.90999984741,-2.21479773521,0.8499999940395,0.859996080399,-118.0,-132.632949829,16.0,0.0,0.0915,-0.051000000000000004,0.028
2018-10-05 19:42:43.300,7.52499985695,-2.21479773521,0.759999990463,0.859996080399,-117.5,-132.632949829,16.0,0.0,0.067,-0.059,0.031
2018-10-05 19:42:43.400,8.074999809265,0.0893103256822,0.6249999701975,1.71355628967,-117.0,-133.284347534,16.0,0.0,0.067,-0.059,0.031
2018-10-05 19:42:43.500,8.549999713895,0.0893103256822,0.4399999827145,1.71355628967,-117.0,-133.284347534,16.0,0.0,0.1085,-0.0195,0.0885
2018-10-05 19:42:43.600,8.95999956131,0.0893103256822,0.24000000208600003,1.71355628967,-117.0,-133.284347534,16.0,0.0,0.225,0.02,0.097
2018-10-05 19:42:43.700,9.379999637605,0.0893103256822,0.070000000298,1.71355628967,-117.0,-133.284347534,16.0,0.0,0.073,9.429780353430001e-18,0.077
2018-10-05 19:42:43.800,9.81500005723,3.11550617218,-0.04999999701975,1.92230594158,-117.0,-135.354385376,16.0,0.0,0.073,9.429780353430001e-18,0.077
2018-10-05 19:42:43.900,10.2199997902,3.11550617218,-0.16499999165524998,1.92230594158,-116.5,-135.354385376,16.0,0.0,0.061,0.018,0.018
2018-10-05 19:42:44.000,10.5199995041,3.11550617218,-0.3049999922515,1.92230594158,-116.0,-135.354385376,16.0,0.0,0.16349999999999998,0.006999999999999999,0.0055
2018-10-05 19:42:44.100,10.7349996567,3.11550617218,-0.454999983311,1.92230594158,-116.0,-135.354385376,16.0,0.0,0.133,0.029,0.013
2018-10-05 19:42:44.200,11.0500001907,5.78921031952,-0.620000004768,1.5230396986,-116.0,-135.847290039,16.0,0.0,0.133,0.029,0.013
2018-10-05 19:42:44.300,11.2299998601,5.7892103195199995,-0.6466666460033333,1.5230396986,-115.33333333333333,-135.847290039,16.0,0.0,-0.0034999999999999996,0.028999999999999998,-0.032
2018-10-05 19:42:44.400,11.3999996185,5.78921031952,-0.669999986887,1.5230396986,-115.0,-135.847290039,16.0,0.0,-0.0034999999999999996,0.028999999999999998,-0.032
2018-10-05 19:42:44.500,11.7299995422,5.78921031952,-0.649999976158,1.5230396986,-115.0,-135.847290039,16.0,0.0,-0.009,0.041,-0.061
2018-10-05 19:42:44.600,11.8800001144,6.24107503891,-0.569999992847,0.458150953054,-115.0,-135.008651733,16.0,0.0,-0.011,0.038,-0.075
2018-10-05 19:42:44.700,11.965000152550001,6.24107503891,-0.5149999856945,0.458150953054,-115.0,-135.008651733,16.0,0.0,0.059,0.0405,-0.0925
2018-10-05 19:42:44.800,12.0650000572,6.24107503891,-0.3799999803305,0.458150953054,-114.5,-135.008651733,16.0,0.0,0.092,0.048,-0.086
2018-10-05 19:42:44.900,12.0699996948,6.928124189375,-0.19999998807924999,-0.09043930470950001,-114.0,-134.27065277100002,16.0,0.0,0.088,0.017,-0.064
2018-10-05 19:42:45.000,11.9699993134,7.61517333984,0.109999999404,-0.639029562473,-114.0,-133.532653809,16.0,0.0,0.133,0.008,-0.05
2018-10-05 19:42:45.100,11.9699993134,7.61517333984,0.109999999404,-0.639029562473,-114.0,-133.532653809,16.0,0.0,0.133,0.008,-0.05
2018-10-05 19:42:45.200,11.713332811966666,8.35647932688,0.3999999761583333,-0.7451002399123334,-114.0,-133.2731577556667,16.0,0.0,0.14700000000000002,-0.006,-0.027
2018-10-05 19:42:45.300,11.3449997902,9.83909130096,0.659999996424,-0.957241594791,-114.0,-132.754165649,16.0,0.0,0.206,-0.036,-0.007
2018-10-05 19:42:45.400,10.9249997139,9.83909130096,0.84999999404,-0.957241594791,-114.0,-132.754165649,16.0,0.0,0.206,-0.036,-0.007
2018-10-05 19:42:45.500,10.6799993515,9.83909130096,0.930000007153,-0.957241594791,-114.0,-132.754165649,16.0,0.0,-0.017,-0.048,-0.014
2018-10-05 19:42:45.600,9.899999618533334,12.1020545959,1.1333332856533334,-0.519283592701,-113.66666666666667,-132.537506104,16.0,0.0,-0.068,-0.0455,-0.013
2018-10-05 19:42:45.700,8.96000003815,12.1020545959,1.37000000477,-0.519283592701,-113.0,-132.537506104,16.0,0.0,-0.068,-0.0455,-0.013
2018-10-05 19:42:45.800,8.38999938965,12.1020545959,1.44999992847,-0.519283592701,-113.0,-132.537506104,16.0,0.0,-0.089,-0.056999999999999995,-0.0405
2018-10-05 19:42:45.900,8.104999542235,11.0076169968,1.464999973775,0.249296352267,-113.0,-131.975997925,16.0,0.0,-0.133,-0.049,-0.054
2018-10-05 19:42:46.000,7.81999969482,11.0076169968,1.49000000954,0.249296352267,-113.0,-131.975997925,16.0,0.0,-0.133,-0.049,-0.054
2018-10-05 19:42:46.100,7.016666412350001,11.007616996800001,1.49000000954,0.249296352267,-113.0,-131.975997925,16.0,0.0,-0.15000000000000002,-0.032,-0.061
2018-10-05 19:42:46.200,6.8799996376,8.4891204834,1.49000000954,0.759039223194,-113.0,-130.90574646,16.0,0.0,-0.15000000000000002,-0.032,-0.061
2018-10-05 19:42:46.300,6.289999643959999,8.4891204834,1.4499999284766665,0.7590392231940001,-113.0,-130.90574646,16.0,0.0,-0.136,-0.0435,-0.033
2018-10-05 19:42:46.400,5.924999713895,8.4891204834,1.43499994278,0.759039223194,-113.0,-130.90574646,16.0,0.0,-0.136,-0.0435,-0.033
2018-10-05 19:42:46.500,5.60999965668,8.4891204834,1.44999992847,0.759039223194,-113.0,-130.90574646,16.0,0.0,-0.033999999999999996,-0.006,-0.0405
2018-10-05 19:42:46.600,5.25999975204,7.6333565712,1.41999995708,0.933315783737,-113.0,-130.44719696049998,16.0,0.0,0.02,-0.021,2.5717582782100003e-18
2018-10-05 19:42:46.700,5.089999914165,6.777592659,1.3899999856949998,1.10759234428,-113.0,-129.988647461,16.0,0.0,-0.04,-0.001,0.029
2018-10-05 19:42:46.800,4.8050000667549995,6.777592659,1.334999978545,1.10759234428,-113.0,-129.988647461,16.0,0.0,-0.086,0.009,0.013
2018-10-05 19:42:46.900,4.5,6.777592659,1.24000000954,1.10759234428,-113.0,-129.988647461,16.0,0.0,-0.081,-0.003,-0.01
2018-10-05 19:42:47.000,4.3299999237049995,6.3899679184,1.19499999285,1.133226692675,-113.5,-130.13852691649998,16.0,0.0,-0.05,-0.003,0.029
2018-10-05 19:42:47.100,4.084999799725,6.0023431778,1.10499995947,1.15886104107,-114.0,-130.288406372,16.0,0.0,-0.023,-0.011,0.015
2018-10-05 19:42:47.200,3.919999837875,6.0023431778,1.009999960661,1.15886104107,-114.0,-130.288406372,16.0,0.0,-0.019,-0.004,4.89858719659e-19
2018-10-05 19:42:47.300,3.754999876025,5.739329338075001,0.919999986887,1.18764603138,-114.0,-130.4072647095,16.0,0.0,-0.068,-0.002,2.44929359829e-19
2018-10-05 19:42:47.400,3.5949999094000002,5.47631549835,0.844999998808,1.21643102169,-114.0,-130.526123047,16.0,0.0,-0.03,0.001,-0.001
2018-10-05 19:42:47.500,3.46000003815,5.47631549835,0.719999969006,1.21643102169,-114.0,-130.526123047,16.0,0.0,-0.08,0.007,-0.004
2018-10-05 19:42:47.600,3.37999987602,5.47631549835,0.649999976158,1.21643102169,-114.0,-130.526123047,16.0,0.0,-0.076,0.01,-0.016
2018-10-05 19:42:47.700,3.364999890325,4.960872411725,0.619999974966,1.0988347828385,-114.0,-130.499382019,16.0,0.0,-0.11,0.006,-0.012
2018-10-05 19:42:47.800,3.31999993324,4.4454293251,0.560000002384,0.981238543987,-114.0,-130.472640991,16.0,0.0,-0.11,0.006,-0.012
2018-10-05 19:42:47.900,3.40999984741,4.4454293251,0.509999990463,0.981238543987,-114.0,-130.472640991,16.0,0.0,-0.0795,0.0135,-0.001
2018-10-05 19:42:48.000,3.46499991417,4.4454293251,0.5049999952315001,0.981238543987,-114.0,-130.472640991,16.0,0.0,-0.036,0.026,-0.016
2018-10-05 19:42:48.100,3.86999988556,3.51223039627,0.5,0.7612031400199999,-114.0,-130.408126831,16.0,0.0,-0.148,0.026,-0.055
2018-10-05 19:42:48.200,4.05999994278,2.57903146744,0.5099999904635,0.541167736053,-114.0,-130.343612671,16.0,0.0,-0.099,0.03,-0.088
2018-10-05 19:42:48.300,4.419999837875,2.57903146744,0.52999997139,0.541167736053,-114.0,-130.343612671,16.0,0.0,-0.099,0.03,-0.088
2018-10-05 19:42:48.400,4.74499988556,2.57903146744,0.52999997139,0.541167736053,-114.0,-130.343612671,16.0,0.0,-0.11,0.0195,-0.0775
2018-10-05 19:42:48.500,5.23999977112,2.57903146744,0.52999997139,0.541167736053,-114.0,-130.343612671,16.0,0.0,-0.02,0.026,-0.043
2018-10-05 19:42:48.600,5.23999977112,0.484878212214,0.52999997139,-0.194207042456,-114.0,-128.570526123,16.0,0.0,-0.02,0.026,-0.043
2018-10-05 19:42:48.700,5.794999837875,0.484878212214,0.560000002384,-0.194207042456,-114.0,-128.570526123,16.0,0.0,-0.138,-0.003000000000000001,-0.009500000000000001
2018-10-05 19:42:48.800,6.156666596733333,0.484878212214,0.5433333317436667,-0.19420704245599998,-114.0,-128.570526123,16.0,0.0,-0.05,0.001,0.015
2018-10-05 19:42:48.900,6.67999982834,0.484878212214,0.479999989271,-0.194207042456,-114.0,-128.570526123,16.0,0.0,0.204,0.043,0.022
2018-10-05 19:42:49.000,7.27999973297,-0.333678424358,0.449999988079,-0.525947570801,-114.0,-128.643554688,16.0,0.0,0.195,0.024,0.041
2018-10-05 19:42:49.100,7.37499976158,-0.333678424358,0.45999999344349995,-0.525947570801,-114.0,-128.643554688,16.0,0.0,0.195,0.024,0.041
2018-10-05 19:42:49.200,7.509999752045,-0.333678424358,0.54999999702,-0.525947570801,-114.0,-128.643554688,16.0,0.0,0.2665,0.0505,0.1185
2018-10-05 19:42:49.300,7.55999970436,-0.333678424358,0.7099999785425,-0.525947570801,-114.0,-128.643554688,16.0,0.0,0.266,-0.007,0.15
2018-10-05 19:42:49.400,7.58999967575,5.95734071732,0.899999976158,-1.15096080303,-114.0,-130.993331909,16.0,0.0,0.05,1.34711147906e-17,0.11
2018-10-05 19:42:49.500,7.6549997329699995,5.95734071732,0.979999959469,-1.15096080303,-114.0,-130.993331909,16.0,0.0,0.05,1.34711147906e-17,0.11
2018-10-05 19:42:49.600,7.84999990463,5.95734071732,1.18999993801,-1.15096080303,-114.0,-130.993331909,16.0,0.0,-0.05,-0.002,0.026
2018-10-05 19:42:49.700,7.924999952315,5.95734071732,1.23999994993,-1.15096080303,-114.0,-130.993331909,16.0,0.0,-0.0555,0.0055,-0.1135
2018-10-05 19:42:49.800,8.00500011444,6.0289607048,1.33499997854,-1.23527109623,-114.0,-131.448425293,16.0,0.0,0.099,-0.003,-0.157
2018-10-05 19:42:49.900,7.990000009535,6.0289607048,1.439999997615,-1.23527109623,-114.0,-131.448425293,16.0,0.0,0.176,-0.007,-0.138
2018-10-05 19:42:50.000,7.89999985695,6.0289607048,1.589999973775,-1.23527109623,-114.0,-131.448425293,16.0,0.0,0.022,-0.044,-0.117
2018-10-05 19:42:50.100,7.724999904635,7.97080850601,1.744999945165,-1.42118895054,-114.0,-129.246047974,16.0,0.0,-0.014,-0.051,-0.113
2018-10-05 19:42:50.200,7.4449999332450005,7.97080850601,1.86499994993,-1.42118895054,-114.0,-129.246047974,16.0,0.0,0.062,-0.034,-0.085
2018-10-05 19:42:50.300,7.0699999332450005,7.97080850601,2.00499993563,-1.42118895054,-114.0,-129.246047974,16.0,0.0,0.131,-0.045,-0.065
2018-10-05 19:42:50.400,6.5699999332450005,7.97080850601,2.14999997616,-1.42118895054,-114.0,-129.246047974,16.0,0.0,0.134,-0.067,-0.008
2018-10-05 19:42:50.500,5.92499995232,9.080556154255,2.269999980925,-0.9684573411949999,-114.0,-128.2632637025,16.0,0.0,0.094,-0.075,0.04
2018-10-05 19:42:50.600,5.219999790195001,10.1903038025,2.36999988556,-0.51572573185,-114.0,-127.280479431,16.0,0.0,0.094,-0.075,0.04
2018-10-05 19:42:50.700,4.13999986649,10.1903038025,2.50999999046,-0.51572573185,-114.0,-127.280479431,16.0,0.0,-0.077,-0.072,0.057
2018-10-05 19:42:50.800,3.789999842645,10.1903038025,2.53999996185,-0.51572573185,-114.0,-127.280479431,16.0,0.0,-0.039,-0.0795,0.032
2018-10-05 19:42:50.900,3.4399998188,10.1903038025,2.56999993324,-0.51572573185,-114.0,-127.280479431,16.0,0.0,-0.129,-0.071,-0.012
2018-10-05 19:42:51.000,2.4599999189400004,10.0784597397,2.5949999094000002,1.44141864777,-114.0,-128.015457153,16.0,0.0,-0.145,-0.047,-0.046
2018-10-05 19:42:51.100,1.8949999213200002,10.0784597397,2.609999895095,1.44141864777,-114.0,-128.015457153,16.0,0.0,-0.159,-0.054,-0.065
2018-10-05 19:42:51.200,1.40999996662,10.0784597397,2.6249998807950004,1.44141864777,-114.0,-128.015457153,16.0,0.0,-0.235,-0.044,-0.077
2018-10-05 19:42:51.300,0.9999999701985001,8.4967327118,2.6349998712550002,1.889871478085,-114.0,-127.47472000100001,16.0,0.0,-0.235,-0.044,-0.077
2018-10-05 19:42:51.400,0.6850000023839999,6.9150056839,2.6049998998649997,2.3383243084,-115.0,-126.933982849,16.0,0.0,-0.2465,-0.035,-0.067
2018-10-05 19:42:51.500,0.4450000077485,6.9150056839,2.514999985695,2.3383243084,-115.0,-126.933982849,16.0,0.0,-0.125,-0.024,-0.034
2018-10-05 19:42:51.600,0.2699999958275,6.9150056839,2.4249999523200003,2.3383243084,-115.0,-126.933982849,16.0,0.0,-0.181,-0.029,-0.013
2018-10-05 19:42:51.700,0.1849999949335,4.79665184021,2.349999904635,2.6344565153149997,-115.0,-126.38042449950001,16.0,0.0,-0.189,-0.026,0.026
2018-10-05 19:42:51.800,0.170000001788,2.67829799652,2.20000004768,2.93058872223,-115.0,-125.82686615,16.0,0.0,-0.171,-0.005,0.04
2018-10-05 19:42:51.900,0.25999999791399997,2.67829799652,2.1299999952300004,2.93058872223,-115.0,-125.82686615,16.0,0.0,-0.079,0.015,0.069
2018-10-05 19:42:52.000,0.46499998867549996,2.67829799652,1.999999940395,2.93058872223,-115.0,-125.82686615,16.0,0.0,-0.083,0.014,0.067
2018-10-05 19:42:52.100,0.7599999904635,1.20104470849,1.874999940395,2.930695176125,-115.0,-126.423538208,16.0,0.0,-0.027,0.016,0.086
2018-10-05 19:42:52.200,1.124999970198,-0.27620857954,1.72999995947,2.93080163002,-115.0,-127.020210266,16.0,0.0,-0.141,0.034,0.079
2018-10-05 19:42:52.300,1.53499996662,-0.27620857954,1.6099999547000001,2.93080163002,-115.0,-127.020210266,16.0,0.0,0.002,0.043,0.061
2018-10-05 19:42:52.400,1.97000002861,-0.27620857954,1.5599999427800002,2.93080163002,-115.0,-127.020210266,16.0,0.0,0.002,0.043,0.061
2018-10-05 19:42:52.500,2.4450000524549997,-0.27620857954,1.55499994755,2.93080163002,-115.0,-127.020210266,16.0,0.0,0.0105,0.0355,0.0405
2018-10-05 19:42:52.600,3.00999991099,-0.7315008838973333,1.5933333237999998,2.16187342008,-115.0,-128.33894093799998,16.0,0.0,0.08,0.021,0.052
2018-10-05 19:42:52.700,3.70999979973,-0.959147036076,1.62999999523,1.77740931511,-115.0,-128.998306274,16.0,0.0,0.163,0.008,0.027
2018-10-05 19:42:52.800,3.9900000095366663,-0.959147036076,1.6166666746166667,1.77740931511,-115.0,-128.998306274,16.0,0.0,0.173,0.012,0.023
2018-10-05 19:42:52.900,4.3299999237049995,-0.959147036076,1.60499995947,1.77740931511,-115.0,-128.998306274,16.0,0.0,0.171,0.019,0.043
2018-10-05 19:42:53.000,4.77999973297,0.8772552907469999,1.59999990463,1.56341266632,-115.0,-129.5113296505,16.0,0.0,0.098,0.009,0.042
2018-10-05 19:42:53.100,4.89999985695,2.71365761757,1.60499995947,1.34941601753,-115.0,-130.024353027,16.0,0.0,0.036,0.021,0.034
2018-10-05 19:42:53.200,5.09500002861,2.71365761757,1.62000000477,1.34941601753,-115.0,-130.024353027,16.0,0.0,0.032,0.016,0.043
2018-10-05 19:42:53.300,5.38999986649,2.71365761757,1.67999994755,1.34941601753,-115.0,-130.024353027,16.0,0.0,0.015,0.025,0.024
2018-10-05 19:42:53.400,5.53999996185,2.71365761757,1.7199999094,1.34941601753,-115.0,-130.024353027,16.0,0.0,-0.028,0.031,0.004
2018-10-05 19:42:53.500,5.65499997139,3.60268354416,1.749999940395,0.879411280155,-115.0,-130.927398682,16.0,0.0,-0.007,-0.006,-0.008
2018-10-05 19:42:53.600,5.88999986649,3.60268354416,1.8133332729366665,0.8794112801550001,-115.0,-130.927398682,16.0,0.0,-0.03,-0.024,-0.007
2018-10-05 19:42:53.700,6.19999980927,3.60268354416,1.86000001431,0.879411280155,-115.0,-130.927398682,16.0,0.0,0.089,-0.028,-0.014
2018-10-05 19:42:53.800,6.35999965668,3.60268354416,1.84999990463,0.879411280155,-115.0,-130.927398682,16.0,0.0,0.111,-0.045,-0.035
2018-10-05 19:42:53.900,6.4099998474149995,4.55876255035,1.8050000071549999,1.21097195148,-115.0,-130.718933105,16.0,0.0,0.012,-0.043,-0.002
2018-10-05 19:42:54.000,6.5,4.55876255035,1.62999999523,1.21097195148,-115.0,-130.718933105,16.0,0.0,0.025,-0.043,0.005
2018-10-05 19:42:54.100,6.514999866485001,4.55876255035,1.519999980925,1.21097195148,-115.0,-130.718933105,16.0,0.0,-0.052,-0.046,-0.01
2018-10-05 19:42:54.200,6.484999895095,4.55876255035,1.314999997615,1.21097195148,-115.0,-130.718933105,16.0,0.0,-0.051,-0.011,-0.005
2018-10-05 19:42:54.300,6.434999942779999,4.72156047821,1.155000030995,1.86718797684,-115.0,-130.669723511,16.0,0.0,0.02,0.002,0.018
2018-10-05 19:42:54.400,6.42999982834,4.72156047821,1.09000003338,1.86718797684,-115.0,-130.669723511,16.0,0.0,0.02,0.002,0.018
2018-10-05 19:42:54.500,6.369999726616666,4.72156047821,0.9766666293146667,1.8671879768399997,-115.0,-130.669723511,16.0,0.0,-0.07,0.023,0.027
2018-10-05 19:42:54.600,6.42999982834,4.72156047821,0.969999969006,1.86718797684,-115.0,-130.669723511,16.0,0.0,-0.03,0.008,-0.006
2018-10-05 19:42:54.700,6.52499985695,4.22250747681,0.9799999594690001,1.47440361977,-115.0,-131.164428711,16.0,0.0,-0.014,0.023,-0.005
2018-10-05 19:42:54.800,6.599999904635,4.22250747681,0.994999974966,1.47440361977,-115.0,-131.164428711,16.0,0.0,-0.036,0.011,-0.003
2018-10-05 19:42:54.900,6.6899998188000005,4.22250747681,0.994999974966,1.47440361977,-115.0,-131.164428711,16.0,0.0,-0.079,0.021,-0.008
2018-10-05 19:42:55.000,6.86999988556,4.22250747681,0.969999969006,1.47440361977,-115.0,-131.164428711,16.0,0.0,-0.079,0.021,-0.008
2018-10-05 19:42:55.100,7.009999910993334,3.24419784546,0.9766666293146667,1.05809080601,-114.33333333333333,-131.147521973,16.0,0.0,-0.0014999999999999996,0.033,-0.002
2018-10-05 19:42:55.200,7.25,3.24419784546,1.00999999046,1.05809080601,-114.0,-131.147521973,16.0,0.0,-0.0014999999999999996,0.033,-0.002
2018-10-05 19:42:55.300,7.25,3.24419784546,1.00999999046,1.05809080601,-114.0,-131.147521973,16.0,0.0,0.101,0.038,-0.02
2018-10-05 19:42:55.400,7.43666648865,4.3081884384133335,1.23333330949,0.45205107331333333,-114.0,-131.13107299833334,16.0,0.0,0.162,0.0195,-0.0055
2018-10-05 19:42:55.500,7.3799996376,4.84018373489,1.5,0.149031206965,-114.0,-131.122848511,16.0,0.0,0.116,-0.025,0.025
2018-10-05 19:42:55.600,7.304999828335,4.84018373489,1.5699999928450001,0.149031206965,-114.0,-131.122848511,16.0,0.0,0.085,-0.046,0.042
2018-10-05 19:42:55.700,7.05999994278,4.84018373489,1.78999996185,0.149031206965,-114.0,-131.122848511,16.0,0.0,0.085,-0.046,0.042
2018-10-05 19:42:55.800,6.82999992371,7.13019323349,1.88999998569,0.613729536533,-114.0,-131.725982666,16.0,0.0,0.109,-0.056,0.016
2018-10-05 19:42:55.900,6.709999799729999,7.13019323349,1.934999942775,0.613729536533,-114.0,-131.725982666,16.0,0.0,0.008,-0.062,0.019
2018-10-05 19:42:56.000,6.414999723435,7.13019323349,2.004999935625,0.613729536533,-114.0,-131.725982666,16.0,0.0,-0.08,-0.047,0.013
2018-10-05 19:42:56.100,6.134999752045,6.96651983261,2.019999980925,1.1621596515165,-114.0,-131.87496948249998,16.0,0.0,-0.1485,-0.058499999999999996,0.0115
2018-10-05 19:42:56.200,5.894999742505,6.80284643173,1.9699999690049999,1.7105897665,-114.0,-132.023956299,16.0,0.0,0.024,-0.006,0.01
2018-10-05 19:42:56.300,5.69499969482,6.80284643173,1.90999996662,1.7105897665,-114.0,-132.023956299,16.0,0.0,-0.178,-0.045,5.51091059616e-18
2018-10-05 19:42:56.400,5.52999973297,6.80284643173,1.78999996185,1.7105897665,-114.0,-132.023956299,16.0,0.0,-0.081,-0.024,-0.024
2018-10-05 19:42:56.500,5.604999780655,5.921994686125,1.74499994516,2.03223258257,-114.0,-132.0365219115,16.0,0.0,-0.081,-0.024,-0.024
2018-10-05 19:42:56.600,5.674999952315,5.04114294052,1.6749999523149999,2.35387539864,-114.0,-132.049087524,15.9899997711,0.0,0.0005000000000000004,0.016,-0.0415
2018-10-05 19:42:56.700,5.9049997329699995,5.04114294052,1.6349999904649999,2.35387539864,-114.0,-132.049087524,15.994999885550001,0.0,0.002,0.014,-0.092
2018-10-05 19:42:56.800,6.109999656675,5.04114294052,1.62000000477,2.35387539864,-114.0,-132.049087524,16.0,0.0,-0.004,0.014,-0.084
2018-10-05 19:42:56.900,6.03999996185,5.04114294052,1.62000000477,2.35387539864,-114.0,-132.049087524,16.0,0.0,0.063,0.006,-0.063
2018-10-05 19:42:57.000,6.94000005722,5.66044378281,1.62000000477,1.69885110855,-113.0,-130.412155151,16.0,0.0,0.065,0.003,-0.011
2018-10-05 19:42:57.100,6.80999994278,5.66044378281,1.61000001431,1.69885110855,-113.0,-130.412155151,16.0,0.0,0.062,-0.013,0.012
2018-10-05 19:42:57.200,7.1949999332450005,5.66044378281,1.59999996424,1.69885110855,-112.5,-130.412155151,16.0,0.0,-0.025,-0.004,0.063
2018-10-05 19:42:57.300,7.52999973297,6.81120491028,1.59999990463,1.71530008316,-112.0,-130.562637329,16.0,0.0,-0.04,-0.015,0.081
2018-10-05 19:42:57.400,7.48000001907,6.81120491028,1.55999994278,1.71530008316,-112.0,-130.562637329,16.0,0.0,-0.04,-0.015,0.081
2018-10-05 19:42:57.500,7.966666698456667,6.81120491028,1.5399999618533335,1.71530008316,-111.33333333333333,-130.562637329,16.0,0.0,-0.0795,0.0035,0.020999999999999998
2018-10-05 19:42:57.600,8.219999790195,6.81120491028,1.5099999904649999,1.71530008316,-111.0,-130.562637329,16.0,0.0,0.03,-0.007,-0.003
2018-10-05 19:42:57.700,9.48499965667,6.81120491028,1.425000011925,1.71530008316,-110.0,-130.562637329,16.0,0.0,0.036,-0.012,-0.002
2018-10-05 19:42:57.800,10.8400001526,6.83336257935,1.19999992847,1.78600788116,-108.0,-131.513137817,16.0,0.0,0.075,-0.009,-0.029
2018-10-05 19:42:57.900,10.8699998856,6.83336257935,1.01999998093,1.78600788116,-108.0,-131.513137817,16.0,0.0,0.075,-0.009,-0.029
2018-10-05 19:42:58.000,11.3550000191,6.83336257935,0.9599999785425001,1.78600788116,-107.5,-131.513137817,16.0,0.0,0.154,0.010499999999999999,-0.0145
2018-10-05 19:42:58.100,11.8899993896,6.83336257935,0.789999961853,1.78600788116,-107.0,-131.513137817,16.0,0.0,0.154,0.010499999999999999,-0.0145
2018-10-05 19:42:58.200,13.48999929425,9.59371948242,0.7549999654295001,1.46477520466,-105.5,-131.176040649,16.0,0.0,-0.0185,-0.0005,-0.020999999999999998
2018-10-05 19:42:58.300,15.23999929425,9.59371948242,0.6649999916555001,1.46477520466,-103.0,-131.176040649,16.0,0.0,-0.0185,-0.0005,-0.020999999999999998
2018-10-05 19:42:58.400,15.3899993896,9.59371948242,0.610000014305,1.46477520466,-103.0,-131.176040649,16.0,0.0,0.222,0.061,-0.096
2018-10-05 19:42:58.500,16.6799993515,9.59371948242,0.704999983311,1.46477520466,-101.5,-131.176040649,16.0,0.0,0.554,-0.0010000000000000009,-0.08399999999999999
2018-10-05 19:42:58.600,17.464999198900003,13.19657707216,0.6850000023839999,1.065797150136,-100.0,-130.36678314199997,16.0,0.0,0.212,-0.063,0.065
2018-10-05 19:42:58.700,19.7099990845,16.7994346619,0.469999998808,0.666819095612,-97.0,-129.557525635,16.0,0.0,0.212,-0.063,0.065
2018-10-05 19:42:58.800,19.646665573133333,16.7994346619,0.406666646401,0.666819095612,-96.66666666666667,-129.557525635,16.0,0.0,-0.128,-0.0445,0.0195
2018-10-05 19:42:58.900,19.504999160799997,16.7994346619,0.264999985695,0.666819095612,-95.0,-129.557525635,16.0,0.0,0.043,-0.024,-0.076
2018-10-05 19:42:59.000,21.3299999237,17.004535675,0.159999996424,1.569201231,-93.0,-129.357559204,16.0,0.0,0.063,-0.024,-0.129
2018-10-05 19:42:59.100,21.33500003815,17.004535675,0.12499999999995001,1.569201231,-92.5,-129.357559204,16.0,0.0,0.131,-0.03,-0.173
2018-10-05 19:42:59.200,22.2199993134,17.004535675,0.0499999970198,1.569201231,-91.0,-129.357559204,16.0,0.0,0.196,-0.024,-0.175
2018-10-05 19:42:59.300,22.1999988556,19.2726345062,0.0799999982119,1.22680795193,-90.0,-126.936645508,16.0,0.0,0.196,-0.024,-0.175
2018-10-05 19:42:59.400,22.0900001526,19.2726345062,0.0799999982119,1.22680795193,-89.0,-126.936645508,16.0,0.0,0.0375,-0.042499999999999996,-0.181
2018-10-05 19:42:59.500,24.7899990082,19.2726345062,0.019999999553,1.22680795193,-86.0,-126.936645508,16.0,0.0,0.0375,-0.042499999999999996,-0.181
2018-10-05 19:42:59.600,24.734999656699998,20.3967761993,-0.0149999987334,0.751159548759,-85.5,-123.413047791,16.0,0.0,-0.0265,-0.0435,-0.2165
2018-10-05 19:42:59.700,25.0900001526,20.3967761993,-0.07499999552965,0.751159548759,-84.0,-123.413047791,15.994999885550001,0.0,0.088,-0.025,-0.214
2018-10-05 19:42:59.800,25.484999656699998,20.3967761993,-0.07999999634919999,0.751159548759,-82.5,-123.413047791,15.9899997711,0.0,0.113,-0.013,-0.214
2018-10-05 19:42:59.900,26.343332926466662,21.292969385766664,-0.0466666656236,0.181360622247,-81.0,-121.114051819,15.9899997711,0.0,-0.069,-0.05,-0.214
2018-10-05 19:43:00.000,28.0900001526,21.741065979,-0.00999999977648,-0.103538841009,-78.0,-119.964553833,15.9899997711,0.0,0.211,-0.073,-0.245
2018-10-05 19:43:00.100,28.0499992371,21.741065979,0.04499999806285,-0.103538841009,-77.0,-119.964553833,15.9899997711,0.0,0.185,-0.098,-0.267
2018-10-05 19:43:00.200,29.6799983978,23.7212104797,0.114999998361,-0.565994799137,-74.0,-115.715782166,16.0,0.0,0.109,-0.103,-0.253
2018-10-05 19:43:00.300,29.609998703,23.7212104797,0.18999999389049999,-0.565994799137,-73.5,-115.715782166,16.0,0.0,0.173,-0.115,-0.24
2018-10-05 19:43:00.400,29.8949995041,23.7212104797,0.32999998331049996,-0.565994799137,-72.0,-115.715782166,16.0,0.0,0.156,-0.123,-0.24
2018-10-05 19:43:00.500,29.9799995422,23.7212104797,0.579999983311,-0.565994799137,-70.0,-115.715782166,16.0,0.0,0.156,-0.123,-0.24
2018-10-05 19:43:00.600,29.8049993515,25.172128677350003,0.639999985695,-0.4121600091455,-69.5,-112.4143753055,16.0,0.0,-0.14800000000000002,-0.164,-0.1775
2018-10-05 19:43:00.700,32.6300010681,26.623046875,0.689999997616,-0.258325219154,-64.0,-109.112968445,16.0,0.0,-0.13,-0.143,-0.193
2018-10-05 19:43:00.800,32.47500038145,26.623046875,0.674999982119,-0.258325219154,-63.5,-109.112968445,16.0,0.0,-0.015,-0.129,-0.176
2018-10-05 19:43:00.900,32.60000038145,26.623046875,0.669999957085,-0.258325219154,-62.0,-109.112968445,16.0,0.0,-0.045,-0.167,-0.174
2018-10-05 19:43:01.000,32.8699989319,24.9180355072,0.669999957085,1.07045018673,-62.0,-104.340415955,16.0,0.0,-0.045,-0.167,-0.174
2018-10-05 19:43:01.100,32.379998524966666,24.9180355072,0.45666666825633334,1.07045018673,-60.333333333333336,-104.34041595499998,16.0,0.0,0.046,-0.113,-0.27649999999999997
2018-10-05 19:43:01.200,33.399999618500004,24.9180355072,0.390000000596,1.07045018673,-58.0,-104.340415955,16.0,0.0,0.051,-0.075,-0.285
2018-10-05 19:43:01.300,34.44000053405,24.9180355072,0.389999985695,1.07045018673,-55.5,-104.340415955,16.0,0.0,0.223,-0.099,-0.218
2018-10-05 19:43:01.400,34.6649990082,26.3666677475,0.43499998748299995,0.9627179503445,-54.0,-100.99909591695,16.0,0.0,0.36,-0.096,-0.196
2018-10-05 19:43:01.500,34.8649978638,27.8152999878,0.5349999815225001,0.854985713959,-52.5,-97.6577758789,16.0,0.0,0.304,-0.117,-0.173
2018-10-05 19:43:01.600,35.7899990082,27.8152999878,0.6599999964234999,0.854985713959,-50.0,-97.6577758789,16.0,0.0,0.304,-0.117,-0.173
2018-10-05 19:43:01.700,36.725000381499996,27.8152999878,0.799999982119,0.854985713959,-47.5,-97.6577758789,16.0,0.0,0.195,-0.133,-0.1975
2018-10-05 19:43:01.800,36.475000381499996,27.8152999878,0.9799999594675001,0.854985713959,-46.0,-97.6577758789,16.0,0.0,0.207,-0.179,-0.211
2018-10-05 19:43:01.900,37.086666107199996,35.4311180115,1.15666659673,0.97738546133,-43.0,-91.5066375732,16.0,0.0,0.171,-0.164,-0.258
2018-10-05 19:43:02.000,37.0900001526,35.4311180115,1.26999998093,0.97738546133,-41.0,-91.5066375732,16.0,0.0,0.084,-0.173,-0.356
2018-10-05 19:43:02.100,39.0,35.4311180115,1.40999996662,0.97738546133,-37.0,-91.5066375732,16.0,0.0,0.033,-0.162,-0.403
2018-10-05 19:43:02.200,38.9499988556,37.05076789855,1.499999940395,0.415057957172,-36.5,-87.8427505493,16.0,0.0,0.102,-0.145,-0.472
2018-10-05 19:43:02.300,38.77999877925,38.6704177856,1.73999994993,-0.147269546986,-35.5,-84.1788635254,16.0,0.0,0.483,-0.219,-0.487
2018-10-05 19:43:02.400,39.239997863750006,38.6704177856,2.04000002146,-0.147269546986,-33.5,-84.1788635254,16.0,0.0,0.318,-0.292,-0.418
2018-10-05 19:43:02.500,39.38999938966666,38.6704177856,2.39000002543,-0.147269546986,-31.333333333333332,-84.1788635254,16.0,0.0,0.144,-0.334,-0.328
2018-10-05 19:43:02.600,39.3799972534,45.1013908386,2.81999993324,-2.18676877022,-29.0,-72.8493118286,16.0,0.0,0.144,-0.334,-0.328
2018-10-05 19:43:02.700,39.019998550400004,45.1013908386,3.0049998760200003,-2.18676877022,-28.5,-72.8493118286,16.0,0.0,0.06699999999999999,-0.37949999999999995,-0.27549999999999997
2018-10-05 19:43:02.800,38.229999542200005,45.1013908386,3.364999890325,-2.18676877022,-27.5,-72.8493118286,16.0,0.0,-0.149,-0.393,-0.246
2018-10-05 19:43:02.900,38.72500038145,45.1013908386,3.699999928475,-2.18676877022,-23.0,-72.8493118286,16.0,0.0,-0.21,-0.388,-0.26
2018-10-05 19:43:03.000,39.2449989319,44.8411865234,4.02499997616,-0.411617189646,-22.5,-63.6927566528,16.0,0.0,-0.056,-0.407,-0.338
2018-10-05 19:43:03.100,39.2049980164,44.8411865234,4.335000038145,-0.411617189646,-20.0,-63.6927566528,16.0,0.0,-0.135,-0.396,-0.32
2018-10-05 19:43:03.200,39.01499938965,44.8411865234,4.59999990463,-0.411617189646,-18.0,-63.6927566528,16.0,0.0,-0.141,-0.389,-0.306
2018-10-05 19:43:03.300,37.57666651403333,44.841186523400005,4.856666723883333,-0.4116171896460001,-17.333333333333332,-63.6927566528,16.0,0.0,-0.121,-0.37,-0.311
2018-10-05 19:43:03.400,38.42499923705,42.3769035339,4.990000009535001,1.45271086693,-14.5,-51.0403022766,15.994999885550001,0.0,0.014,-0.352,-0.343
2018-10-05 19:43:03.500,39.0399990082,42.3769035339,5.099999904635,1.45271086693,-11.5,-51.0403022766,15.9899997711,0.0,0.014,-0.352,-0.343
2018-10-05 19:43:03.600,38.12499809265,42.3769035339,5.199999809265,1.45271086693,-10.0,-51.0403022766,15.9899997711,0.0,0.171,-0.369,-0.3585
2018-10-05 19:43:03.700,37.1549987793,45.2405471802,5.27499985695,1.95699179173,-8.5,-42.0412406921,15.9899997711,0.0,-0.173,-0.337,-0.342
2018-10-05 19:43:03.800,37.2099990845,45.2405471802,5.349999904635,1.95699179173,-6.0,-42.0412406921,15.994999885550001,0.0,-0.324,-0.374,-0.345
2018-10-05 19:43:03.900,37.09000015255,45.2405471802,5.30499982834,1.95699179173,-4.0,-42.0412406921,16.0,0.0,-0.125,-0.336,-0.354
2018-10-05 19:43:04.000,35.2399997711,45.2405471802,5.114999771115,1.95699179173,-3.5,-42.0412406921,16.0,0.0,-0.153,-0.361,-0.357
2018-10-05 19:43:04.100,33.88499832155,42.0004806519,4.88499975204,2.41931056976,-2.0,-31.435136795,16.0,0.0,-0.187,-0.347,-0.324
2018-10-05 19:43:04.200,32.4299993515,42.0004806519,4.65999984741,2.41931056976,-1.0,-31.435136795,16.0,0.0,-0.32,-0.361,-0.218
2018-10-05 19:43:04.300,29.63666598003333,42.0004806519,4.3533333142599995,2.41931056976,-0.3333333333333333,-31.435136794999995,16.0,0.0,-0.097,-0.367,-0.149
2018-10-05 19:43:04.400,26.66499996185,42.0004806519,3.854999899865,2.41931056976,0.0,-31.435136795,16.0,0.0,-0.319,-0.349,-0.143
2018-10-05 19:43:04.500,23.6899986267,39.141620636,3.28499996662,4.41247653961,0.0,-25.6736783981,16.0,0.0,-0.328,-0.182,-0.222
2018-10-05 19:43:04.600,22.0,36.2827606201,2.9399998188,6.40564250946,1.0,-19.9122200012,16.0,0.0,-0.326,-0.111,-0.327
2018-10-05 19:43:04.700,20.7299995422,36.2827606201,2.75999999046,6.40564250946,1.0,-19.9122200012,16.0,0.0,-0.245,-0.128,-0.369
2018-10-05 19:43:04.800,19.75500011445,36.2827606201,2.625,6.40564250946,1.0,-19.9122200012,16.0,0.0,-0.245,-0.128,-0.369
2018-10-05 19:43:04.900,18.0200004578,36.2827606201,2.38333336512,6.405642509459999,1.6666666666666667,-19.9122200012,16.0,0.0,-0.07200000000000001,-0.1565,-0.30700000000000005
2018-10-05 19:43:05.000,14.5199995041,32.6916923523,1.99000000954,5.12670755386,2.0,-10.2579097748,16.0,0.0,-0.111,-0.157,-0.251
2018-10-05 19:43:05.100,14.5099992752,32.6916923523,1.99000000954,5.12670755386,2.0,-10.2579097748,16.0,0.0,-0.194,-0.199,-0.212
2018-10-05 19:43:05.200,11.224999904635,32.6916923523,1.6899999380100001,5.12670755386,2.0,-10.2579097748,16.0,0.0,-0.35,-0.183,-0.141
2018-10-05 19:43:05.300,8.293333053586666,30.361492156966666,1.3733332951833332,5.736591180166666,2.0,-7.0904331207333335,16.0,0.0,-0.376,-0.132,-0.092
2018-10-05 19:43:05.400,7.46000003815,29.1963920593,1.27999997139,6.04153299332,2.0,-5.5066947937,16.0,0.0,-0.376,-0.132,-0.092
2018-10-05 19:43:05.500,3.3533333142566666,29.1963920593,0.6966666579246666,6.04153299332,2.0,-5.5066947937,16.0,0.0,-0.48050000000000004,-0.091,-0.09
2018-10-05 19:43:05.600,0.569999992847,29.1963920593,0.209999993443,6.04153299332,2.0,-5.5066947937,16.0,0.0,-0.416,-0.044,-0.143
2018-10-05 19:43:05.700,-1.14999997616,29.1963920593,-0.129999995232,6.04153299332,2.0,-5.5066947937,16.0,0.0,-0.416,-0.044,-0.143
2018-10-05 19:43:05.800,-1.904999911785,19.2984027863,-0.3249999955295,7.09493160248,2.0,-1.97502624989,16.0,0.0,-0.5365,-0.0165,-0.149
2018-10-05 19:43:05.900,-2.65999984741,19.2984027863,-0.509999990463,7.09493160248,2.0,-1.97502624989,16.0,0.0,-0.447,0.047,-0.144
2018-10-05 19:43:06.000,-4.37499976158,19.2984027863,-0.9199999868855,7.09493160248,2.0,-1.97502624989,16.0,0.0,-0.412,0.033,-0.12
2018-10-05 19:43:06.100,-4.83999967575,19.2984027863,-1.01999998093,7.09493160248,2.0,-1.97502624989,16.0,0.0,-0.412,0.033,-0.12
2018-10-05 19:43:06.200,-5.924999713895,13.934947490715,-1.1949999928450001,6.4031469821950004,2.0,-0.38750654459,16.0,0.0,-0.35,0.043,-0.082
2018-10-05 19:43:06.300,-6.7999997139,8.57149219513,-1.40999996662,5.71136236191,1.0,1.20001316071,16.0,0.0,-0.309,0.0345,-0.024
2018-10-05 19:43:06.400,-7.004999876025,8.57149219513,-1.5249999761550002,5.71136236191,1.0,1.20001316071,16.0,0.0,-0.351,0.035,0.009
2018-10-05 19:43:06.500,-7.390000025430001,6.430121421813333,-1.77999993165,5.434577465059999,1.0,1.2673099835733332,16.0,0.0,-0.316,0.044,0.042
2018-10-05 19:43:06.600,-7.50499987602,2.14737987518,-1.9399999380100001,4.88100767136,1.0,1.4019036293,16.0,0.0,-0.327,0.061,0.053
2018-10-05 19:43:06.700,-7.46999979019,2.14737987518,-2.0949999094000002,4.88100767136,1.0,1.4019036293,16.0,0.0,-0.327,0.061,0.053
2018-10-05 19:43:06.800,-7.254999876019999,2.14737987518,-2.2299998998649997,4.88100767136,1.0,1.4019036293,16.0,0.0,-0.27749999999999997,0.062,0.044
2018-10-05 19:43:06.900,-7.10999965668,2.14737987518,-2.29999995232,4.88100767136,1.0,1.4019036293,16.0,0.0,-0.27749999999999997,0.062,0.044
